<?xml version="1.0" encoding="UTF-8" standalone="no"?>
<callboxes xmlns:xsi="http://www.w3.org/2001/XMLSchema-instance" xsi:noNamespaceSchemaLocation="callBoxesWithGeolocation.xsd">
  <callbox vtaid="387228010">
    <region>Jihočeský</region>
    <district>České Budějovice</district>
    <municipality>Adamov</municipality>
    <part>Adamov</part>
    <street>Dělnická</street>
    <note>prodejna smíšené zboží</note>
  <location>
      <lat>49.0005966</lat>
      <lng>14.5403543</lng>
    </location>
  </callbox>
  <callbox vtaid="387225134">
    <region>Jihočeský</region>
    <district>České Budějovice</district>
    <municipality>Borek</municipality>
    <part>Borek</part>
    <street>Pražská</street>
    <note>u obecního úřadu</note>
  <location>
      <lat>49.0208158</lat>
      <lng>14.4988017</lng>
    </location>
  </callbox>
  <callbox vtaid="387986212">
    <region>Jihočeský</region>
    <district>České Budějovice</district>
    <municipality>Bošilec</municipality>
    <part>Bošilec</part>
    <note>u požární zbrojnice</note>
  <location>
      <lat>49.1493184</lat>
      <lng>14.6462192</lng>
    </location>
  </callbox>
  <callbox vtaid="387982198">
    <region>Jihočeský</region>
    <district>České Budějovice</district>
    <municipality>Čakov</municipality>
    <part>Čakov</part>
    <note>u obecního úřadu</note>
  <location>
      <lat>48.9805592</lat>
      <lng>14.3076726</lng>
    </location>
  </callbox>
  <callbox vtaid="386321503">
    <region>Jihočeský</region>
    <district>České Budějovice</district>
    <municipality>Čížkrajice</municipality>
    <part>Čížkrajice</part>
    <note>u požární zbrojnice</note>
  <location>
      <lat>48.8064921</lat>
      <lng>14.6361257</lng>
    </location>
  </callbox>
  <callbox vtaid="387999166">
    <region>Jihočeský</region>
    <district>České Budějovice</district>
    <municipality>Dívčice</municipality>
    <part>Dívčice</part>
    <note>u vlakového nádraží</note>
  <location>
      <lat>49.1086334</lat>
      <lng>14.3092993</lng>
    </location>
  </callbox>
  <callbox vtaid="385726100">
    <region>Jihočeský</region>
    <district>České Budějovice</district>
    <municipality>Dolní Bukovsko</municipality>
    <part>Dolní Bukovsko</part>
    <street>nám. Jiráskovo</street>
    <note>u obecního úřadu</note>
  <location>
      <lat>49.1709320</lat>
      <lng>14.5806814</lng>
    </location>
  </callbox>
  <callbox vtaid="387988548">
    <region>Jihočeský</region>
    <district>České Budějovice</district>
    <municipality>Doudleby</municipality>
    <part>Straňany</part>
    <note>u hospody</note>
  <location>
      <lat>48.8935305</lat>
      <lng>14.5014867</lng>
    </location>
  </callbox>
  <callbox vtaid="382588027">
    <region>Jihočeský</region>
    <district>České Budějovice</district>
    <municipality>Dražíč</municipality>
    <part>Dražíč</part>
    <note>na prodejně náves</note>
  <location>
      <lat>49.3058738</lat>
      <lng>14.3838230</lng>
    </location>
  </callbox>
  <callbox vtaid="387228009">
    <region>Jihočeský</region>
    <district>České Budějovice</district>
    <municipality>Dubičné</municipality>
    <part>Dubičné</part>
    <note>náves</note>
  <location>
      <lat>48.9810742</lat>
      <lng>14.5387634</lng>
    </location>
  </callbox>
  <callbox vtaid="387986829">
    <region>Jihočeský</region>
    <district>České Budějovice</district>
    <municipality>Dynín</municipality>
    <part>Dynín</part>
    <note>u obchodu</note>
  <location>
      <lat>49.1372035</lat>
      <lng>14.6311964</lng>
    </location>
  </callbox>
  <callbox vtaid="385726370">
    <region>Jihočeský</region>
    <district>České Budějovice</district>
    <municipality>Hartmanice</municipality>
    <part>Hartmanice</part>
    <note>u obecního úřadu,náves</note>
  <location>
      <lat>49.2079486</lat>
      <lng>14.5651157</lng>
    </location>
  </callbox>
  <callbox vtaid="387983179">
    <region>Jihočeský</region>
    <district>České Budějovice</district>
    <municipality>Hlavatce</municipality>
    <part>Hlavatce</part>
    <note>náves, ID ROP = 3929233</note>
  <location>
      <lat>49.0673054</lat>
      <lng>14.2631794</lng>
    </location>
  </callbox>
  <callbox vtaid="387250660">
    <region>Jihočeský</region>
    <district>České Budějovice</district>
    <municipality>Homole</municipality>
    <part>Nové Homole</part>
    <note>náves, u zastávky ČSAD</note>
  <location>
      <lat>48.9388995</lat>
      <lng>14.4294720</lng>
    </location>
  </callbox>
  <callbox vtaid="386327109">
    <region>Jihočeský</region>
    <district>České Budějovice</district>
    <municipality>Horní Stropnice</municipality>
    <part>Horní Stropnice</part>
    <note>autobusové nádraží  419524</note>
  <location>
      <lat>48.7612467</lat>
      <lng>14.7350143</lng>
    </location>
  </callbox>
  <callbox vtaid="385731521">
    <region>Jihočeský</region>
    <district>České Budějovice</district>
    <municipality>Hosty</municipality>
    <part>Hosty</part>
    <note>u obchodu</note>
  <location>
      <lat>49.2602957</lat>
      <lng>14.3932591</lng>
    </location>
  </callbox>
  <callbox vtaid="387220245">
    <region>Jihočeský</region>
    <district>České Budějovice</district>
    <municipality>Hrdějovice</municipality>
    <part>Hrdějovice</part>
    <street>Těšínská</street>
    <note>u křižovatky</note>
  <location>
      <lat>49.0227188</lat>
      <lng>14.4832745</lng>
    </location>
  </callbox>
  <callbox vtaid="387997322">
    <region>Jihočeský</region>
    <district>České Budějovice</district>
    <municipality>Chotýčany</municipality>
    <part>Chotýčany</part>
    <note> u pošty</note>
  <location>
      <lat>49.0672935</lat>
      <lng>14.5205906</lng>
    </location>
  </callbox>
  <callbox vtaid="387982162">
    <region>Jihočeský</region>
    <district>České Budějovice</district>
    <municipality>Jankov</municipality>
    <part>Jankov</part>
    <note>náves - u obecního úřadu</note>
  <location>
      <lat>48.9664442</lat>
      <lng>14.2978862</lng>
    </location>
  </callbox>
  <callbox vtaid="387228018">
    <region>Jihočeský</region>
    <district>České Budějovice</district>
    <municipality>Jivno</municipality>
    <part>Jivno</part>
    <note>Před obecním úřadem - stojan</note>
  <location>
      <lat>48.9955198</lat>
      <lng>14.5692211</lng>
    </location>
  </callbox>
  <callbox vtaid="387996915">
    <region>Jihočeský</region>
    <district>České Budějovice</district>
    <municipality>Komařice</municipality>
    <part>Komařice</part>
    <note>u obecního úřadu</note>
  <location>
      <lat>48.8784488</lat>
      <lng>14.5456629</lng>
    </location>
  </callbox>
  <callbox vtaid="387984828">
    <region>Jihočeský</region>
    <district>České Budějovice</district>
    <municipality>Libín</municipality>
    <part>Libín</part>
    <note>náves, u obecního úřadu</note>
  <location>
      <lat>48.9696270</lat>
      <lng>14.6836062</lng>
    </location>
  </callbox>
  <callbox vtaid="387992112">
    <region>Jihočeský</region>
    <district>České Budějovice</district>
    <municipality>Lipí</municipality>
    <part>Lipí</part>
    <note>u bytovek</note>
  <location>
      <lat>48.9494813</lat>
      <lng>14.3521393</lng>
    </location>
  </callbox>
  <callbox vtaid="387997178">
    <region>Jihočeský</region>
    <district>České Budějovice</district>
    <municipality>Mazelov</municipality>
    <part>Mazelov</part>
    <note> u obchodu</note>
  <location>
      <lat>49.1029530</lat>
      <lng>14.6177857</lng>
    </location>
  </callbox>
  <callbox vtaid="387985637">
    <region>Jihočeský</region>
    <district>České Budějovice</district>
    <municipality>Mydlovary</municipality>
    <part>Mydlovary</part>
    <note>náves u obecního úřadu</note>
  <location>
      <lat>49.0911327</lat>
      <lng>14.3543495</lng>
    </location>
  </callbox>
  <callbox vtaid="387240124">
    <region>Jihočeský</region>
    <district>České Budějovice</district>
    <municipality>Nedabyle</municipality>
    <part>Nedabyle</part>
    <note>u obecního úřadu</note>
  <location>
      <lat>48.9284088</lat>
      <lng>14.5149371</lng>
    </location>
  </callbox>
  <callbox vtaid="387240812">
    <region>Jihočeský</region>
    <district>České Budějovice</district>
    <municipality>Nová Ves</municipality>
    <part>Nová Ves</part>
    <note>u vlakového nádraží</note>
  <location>
      <lat>48.9206089</lat>
      <lng>14.5286405</lng>
    </location>
  </callbox>
  <callbox vtaid="387985639">
    <region>Jihočeský</region>
    <district>České Budějovice</district>
    <municipality>Olešník</municipality>
    <part>Olešník</part>
    <note>náves, u OÚ</note>
  <location>
      <lat>49.1071351</lat>
      <lng>14.3638193</lng>
    </location>
  </callbox>
  <callbox vtaid="386325119">
    <region>Jihočeský</region>
    <district>České Budějovice</district>
    <municipality>Petříkov</municipality>
    <part>Petříkov</part>
    <note>náves, u obchodu č.p. 81</note>
  <location>
      <lat>48.8469723</lat>
      <lng>14.7546077</lng>
    </location>
  </callbox>
  <callbox vtaid="387203493">
    <region>Jihočeský</region>
    <district>České Budějovice</district>
    <municipality>Planá</municipality>
    <part>Planá</part>
    <note>parkoviště u vojenského útvaru</note>
  <location>
      <lat>48.9436747</lat>
      <lng>14.4527679</lng>
    </location>
  </callbox>
  <callbox vtaid="387983048">
    <region>Jihočeský</region>
    <district>České Budějovice</district>
    <municipality>Radošovice</municipality>
    <part>Radošovice</part>
    <note>náves</note>
  <location>
      <lat>49.0195992</lat>
      <lng>14.2729263</lng>
    </location>
  </callbox>
  <callbox vtaid="387987307">
    <region>Jihočeský</region>
    <district>České Budějovice</district>
    <municipality>Římov</municipality>
    <part>Římov</part>
    <note>u obecního úřadu, u zastávky ČSAD</note>
  <location>
      <lat>48.8556189</lat>
      <lng>14.4868399</lng>
    </location>
  </callbox>
  <callbox vtaid="386323117">
    <region>Jihočeský</region>
    <district>České Budějovice</district>
    <municipality>Slavče</municipality>
    <part>Slavče</part>
    <note>náves, u zastávky</note>
  <location>
      <lat>48.7978486</lat>
      <lng>14.6149649</lng>
    </location>
  </callbox>
  <callbox vtaid="387240393">
    <region>Jihočeský</region>
    <district>České Budějovice</district>
    <municipality>Staré Hodějovice</municipality>
    <part>Staré Hodějovice</part>
    <street>Na Návsi</street>
    <note>u prodejny</note>
  <location>
      <lat>48.9449587</lat>
      <lng>14.5212654</lng>
    </location>
  </callbox>
  <callbox vtaid="387982012">
    <region>Jihočeský</region>
    <district>České Budějovice</district>
    <municipality>Strýčice</municipality>
    <part>Strýčice</part>
  <location>
      <lat>49.0123066</lat>
      <lng>14.2660818</lng>
    </location>
  </callbox>
  <callbox vtaid="387962234">
    <region>Jihočeský</region>
    <district>České Budějovice</district>
    <municipality>Svatý Jan nad Malší</municipality>
    <part>Svatý Jan nad Malší</part>
    <note>náves,u obchodu</note>
  <location>
      <lat>48.8240389</lat>
      <lng>14.5085213</lng>
    </location>
  </callbox>
  <callbox vtaid="387984905">
    <region>Jihočeský</region>
    <district>České Budějovice</district>
    <municipality>Štěpánovice</municipality>
    <part>Štěpánovice</part>
    <street>Třeboňská</street>
    <note>náves, u hlavní silnice, u motorestu</note>
  <location>
      <lat>48.9989280</lat>
      <lng>14.6630750</lng>
    </location>
  </callbox>
  <callbox vtaid="387225019">
    <region>Jihočeský</region>
    <district>České Budějovice</district>
    <municipality>Úsilné</municipality>
    <part>Úsilné</part>
    <note>náves</note>
  <location>
      <lat>49.0133904</lat>
      <lng>14.5072639</lng>
    </location>
  </callbox>
  <callbox vtaid="386467143">
    <region>Jihočeský</region>
    <district>České Budějovice</district>
    <municipality>Vidov</municipality>
    <part>Vidov</part>
    <note>náves</note>
  <location>
      <lat>48.9267484</lat>
      <lng>14.4946490</lng>
    </location>
  </callbox>
  <callbox vtaid="387250224">
    <region>Jihočeský</region>
    <district>České Budějovice</district>
    <municipality>Vrábče</municipality>
    <part>Vrábče</part>
    <note>u vlakové zastávky</note>
  <location>
      <lat>48.9173530</lat>
      <lng>14.3759141</lng>
    </location>
  </callbox>
  <callbox vtaid="385724081">
    <region>Jihočeský</region>
    <district>České Budějovice</district>
    <municipality>Všemyslice</municipality>
    <part>Neznašov</part>
    <note>náves</note>
  <location>
      <lat>49.2169636</lat>
      <lng>14.3578899</lng>
    </location>
  </callbox>
  <callbox vtaid="387985025">
    <region>Jihočeský</region>
    <district>České Budějovice</district>
    <municipality>Zahájí</municipality>
    <part>Zahájí</part>
    <note>náves, u obecního úřadu</note>
  <location>
      <lat>49.0895871</lat>
      <lng>14.3708052</lng>
    </location>
  </callbox>
  <callbox vtaid="387992198">
    <region>Jihočeský</region>
    <district>České Budějovice</district>
    <municipality>Žabovřesky</municipality>
    <part>Žabovřesky</part>
    <note>náves</note>
  <location>
      <lat>49.0028077</lat>
      <lng>14.3348570</lng>
    </location>
  </callbox>
  <callbox vtaid="385737047">
    <region>Jihočeský</region>
    <district>České Budějovice</district>
    <municipality>Žimutice</municipality>
    <part>Žimutice</part>
    <note>u základní školy</note>
  <location>
      <lat>49.2037198</lat>
      <lng>14.5104272</lng>
    </location>
  </callbox>
  <callbox vtaid="380323160">
    <region>Jihočeský</region>
    <district>Český Krumlov</district>
    <municipality>Besednice</municipality>
    <part>Besednice</part>
    <street>Hlinice</street>
    <note>u nákupního střediska Jednota, náves</note>
  <location>
      <lat>48.7869453</lat>
      <lng>14.5559354</lng>
    </location>
  </callbox>
  <callbox vtaid="380737234">
    <region>Jihočeský</region>
    <district>Český Krumlov</district>
    <municipality>Boletice</municipality>
    <part>Boletice</part>
    <note>Polná na Šumavě, na budově obchodu </note>
  <location>
      <lat>48.8248749</lat>
      <lng>14.2173353</lng>
    </location>
  </callbox>
  <callbox vtaid="380327095">
    <region>Jihočeský</region>
    <district>Český Krumlov</district>
    <municipality>Bujanov</municipality>
    <part>Bujanov</part>
    <note>u obecního úřadu</note>
  <location>
      <lat>48.7023287</lat>
      <lng>14.4296472</lng>
    </location>
  </callbox>
  <callbox vtaid="380324280">
    <region>Jihočeský</region>
    <district>Český Krumlov</district>
    <municipality>Dolní Dvořiště</municipality>
    <part>Dolní Dvořiště</part>
    <note>náměstí</note>
  <location>
      <lat>48.6564211</lat>
      <lng>14.4522095</lng>
    </location>
  </callbox>
  <callbox vtaid="380735298">
    <region>Jihočeský</region>
    <district>Český Krumlov</district>
    <municipality>Frymburk</municipality>
    <part>Frymburk</part>
    <note>u lékárny I</note>
  <location>
      <lat>48.6609442</lat>
      <lng>14.1656315</lng>
    </location>
  </callbox>
  <callbox vtaid="380747001">
    <region>Jihočeský</region>
    <district>Český Krumlov</district>
    <municipality>Horní Dvořiště</municipality>
    <part>Horní Dvořiště</part>
    <note>náves, u pošty</note>
  <location>
      <lat>48.6037831</lat>
      <lng>14.4057218</lng>
    </location>
  </callbox>
  <callbox vtaid="380739224">
    <region>Jihočeský</region>
    <district>Český Krumlov</district>
    <municipality>Chvalšiny</municipality>
    <part>Chvalšiny</part>
    <note>náměstí</note>
  <location>
      <lat>48.8540194</lat>
      <lng>14.2111388</lng>
    </location>
  </callbox>
  <callbox vtaid="380736049">
    <region>Jihočeský</region>
    <district>Český Krumlov</district>
    <municipality>Lipno nad Vltavou</municipality>
    <part>Lipno nad Vltavou</part>
    <note>MARINA LIPNO, u trafostanice, u budovy D12</note>
  <location>
      <lat>48.6393267</lat>
      <lng>14.2293199</lng>
    </location>
  </callbox>
  <callbox vtaid="380325160">
    <region>Jihočeský</region>
    <district>Český Krumlov</district>
    <municipality>Malonty</municipality>
    <part>Malonty</part>
    <note>u pošty</note>
  <location>
      <lat>48.6861119</lat>
      <lng>14.5767752</lng>
    </location>
  </callbox>
  <callbox vtaid="380711148">
    <region>Jihočeský</region>
    <district>Český Krumlov</district>
    <municipality>Mirkovice</municipality>
    <part>Mirkovice</part>
    <note>náves</note>
  <location>
      <lat>48.8109762</lat>
      <lng>14.3912520</lng>
    </location>
  </callbox>
  <callbox vtaid="380321256">
    <region>Jihočeský</region>
    <district>Český Krumlov</district>
    <municipality>Netřebice</municipality>
    <part>Netřebice</part>
    <note>u hlavní silnice, u obchodu</note>
  <location>
      <lat>48.7907868</lat>
      <lng>14.4555654</lng>
    </location>
  </callbox>
  <callbox vtaid="380311237">
    <region>Jihočeský</region>
    <district>Český Krumlov</district>
    <municipality>Omlenice</municipality>
    <part>Omlenička</part>
    <note>náves</note>
  <location>
      <lat>48.7258182</lat>
      <lng>14.4436320</lng>
    </location>
  </callbox>
  <callbox vtaid="380735408">
    <region>Jihočeský</region>
    <district>Český Krumlov</district>
    <municipality>Přední Výtoň</municipality>
    <part>Přední Výtoň</part>
    <note>náves, u obchodu</note>
  <location>
      <lat>48.6311443</lat>
      <lng>14.1644896</lng>
    </location>
  </callbox>
  <callbox vtaid="380726468">
    <region>Jihočeský</region>
    <district>Český Krumlov</district>
    <municipality>Přísečná</municipality>
    <part>Přísečná</part>
    <note>náves, u obchodu</note>
  <location>
      <lat>48.8330732</lat>
      <lng>14.3454072</lng>
    </location>
  </callbox>
  <callbox vtaid="380327165">
    <region>Jihočeský</region>
    <district>Český Krumlov</district>
    <municipality>Rožmitál na Šumavě</municipality>
    <part>Rožmitál na Šumavě</part>
    <note>náves</note>
  <location>
      <lat>48.7013993</lat>
      <lng>14.3882775</lng>
    </location>
  </callbox>
  <callbox vtaid="380743337">
    <region>Jihočeský</region>
    <district>Český Krumlov</district>
    <municipality>Srnín</municipality>
    <part>Srnín</part>
    <note>náves</note>
  <location>
      <lat>48.8450149</lat>
      <lng>14.3437032</lng>
    </location>
  </callbox>
  <callbox vtaid="380737297">
    <region>Jihočeský</region>
    <district>Český Krumlov</district>
    <municipality>Světlík</municipality>
    <part>Světlík</part>
    <note>náves</note>
  <location>
      <lat>48.7316608</lat>
      <lng>14.2109702</lng>
    </location>
  </callbox>
  <callbox vtaid="380332480">
    <region>Jihočeský</region>
    <district>Český Krumlov</district>
    <municipality>Zubčice</municipality>
    <part>Zubčice</part>
    <note>náves, u OÚ</note>
  <location>
      <lat>48.7940367</lat>
      <lng>14.4071805</lng>
    </location>
  </callbox>
  <callbox vtaid="384396480">
    <region>Jihočeský</region>
    <district>Jindřichův Hradec</district>
    <municipality>Bednárec</municipality>
    <part>Bednárec</part>
    <note>u hl.silnice</note>
  <location>
      <lat>49.1952391</lat>
      <lng>15.0931964</lng>
    </location>
  </callbox>
  <callbox vtaid="384397191">
    <region>Jihočeský</region>
    <district>Jindřichův Hradec</district>
    <municipality>Blažejov</municipality>
    <part>Blažejov</part>
    <note>u obchodu</note>
  <location>
      <lat>49.1421951</lat>
      <lng>15.0964532</lng>
    </location>
  </callbox>
  <callbox vtaid="384384490">
    <region>Jihočeský</region>
    <district>Jindřichův Hradec</district>
    <municipality>Březina</municipality>
    <part>Březina</part>
    <note>před OÚ</note>
  <location>
      <lat>49.1353677</lat>
      <lng>14.9328267</lng>
    </location>
  </callbox>
  <callbox vtaid="384495124">
    <region>Jihočeský</region>
    <district>Jindřichův Hradec</district>
    <municipality>Budíškovice</municipality>
    <part>Budíškovice</part>
    <note>obecní úřad</note>
  <location>
      <lat>49.0762484</lat>
      <lng>15.5309057</lng>
    </location>
  </callbox>
  <callbox vtaid="384493396">
    <region>Jihočeský</region>
    <district>Jindřichův Hradec</district>
    <municipality>Cizkrajov</municipality>
    <part>Cizkrajov</part>
    <note>u zastávky ČAD</note>
  <location>
      <lat>49.0305495</lat>
      <lng>15.3896544</lng>
    </location>
  </callbox>
  <callbox vtaid="384496184">
    <region>Jihočeský</region>
    <district>Jindřichův Hradec</district>
    <municipality>Český Rudolec</municipality>
    <part>Český Rudolec</part>
    <note>u prodejny Jednoty</note>
  <location>
      <lat>49.0683536</lat>
      <lng>15.3243716</lng>
    </location>
  </callbox>
  <callbox vtaid="384399018">
    <region>Jihočeský</region>
    <district>Jindřichův Hradec</district>
    <municipality>Člunek</municipality>
    <part>Lomy</part>
    <note>u prodejny</note>
  <location>
      <lat>49.1114461</lat>
      <lng>15.1267602</lng>
    </location>
  </callbox>
  <callbox vtaid="384384298">
    <region>Jihočeský</region>
    <district>Jindřichův Hradec</district>
    <municipality>Deštná</municipality>
    <part>Deštná</part>
    <street>nám. Míru</street>
    <note>náměstí</note>
  <location>
      <lat>49.2653457</lat>
      <lng>14.9238152</lng>
    </location>
  </callbox>
  <callbox vtaid="384721884">
    <region>Jihočeský</region>
    <district>Jindřichův Hradec</district>
    <municipality>Domanín</municipality>
    <part>Domanín</part>
    <note>u rybníčku</note>
  <location>
      <lat>48.9716827</lat>
      <lng>14.7397695</lng>
    </location>
  </callbox>
  <callbox vtaid="384721903">
    <region>Jihočeský</region>
    <district>Jindřichův Hradec</district>
    <municipality>Dunajovice</municipality>
    <part>Dunajovice</part>
    <note>náves</note>
  <location>
      <lat>49.0350491</lat>
      <lng>14.6952483</lng>
    </location>
  </callbox>
  <callbox vtaid="384792275">
    <region>Jihočeský</region>
    <district>Jindřichův Hradec</district>
    <municipality>Frahelž</municipality>
    <part>Frahelž</part>
    <note>u obecního úřadu</note>
  <location>
      <lat>49.1171321</lat>
      <lng>14.7319286</lng>
    </location>
  </callbox>
  <callbox vtaid="384797597">
    <region>Jihočeský</region>
    <district>Jindřichův Hradec</district>
    <municipality>Hamr</municipality>
    <part>Hamr</part>
    <note>náves</note>
  <location>
      <lat>48.9494057</lat>
      <lng>14.9134290</lng>
    </location>
  </callbox>
  <callbox vtaid="384490780">
    <region>Jihočeský</region>
    <district>Jindřichův Hradec</district>
    <municipality>Horní Meziříčko</municipality>
    <part>Horní Meziříčko</part>
    <note>u obecního úřadu</note>
  <location>
      <lat>49.1565837</lat>
      <lng>15.2445088</lng>
    </location>
  </callbox>
  <callbox vtaid="384388128">
    <region>Jihočeský</region>
    <district>Jindřichův Hradec</district>
    <municipality>Horní Pěna</municipality>
    <part>Horní Pěna</part>
    <note>u zastávky ČAD</note>
  <location>
      <lat>49.1044153</lat>
      <lng>15.0422967</lng>
    </location>
  </callbox>
  <callbox vtaid="384495118">
    <region>Jihočeský</region>
    <district>Jindřichův Hradec</district>
    <municipality>Horní Slatina</municipality>
    <part>Horní Slatina</part>
    <note>náves u rybníka</note>
  <location>
      <lat>49.0904774</lat>
      <lng>15.5687337</lng>
    </location>
  </callbox>
  <callbox vtaid="384782199">
    <region>Jihočeský</region>
    <district>Jindřichův Hradec</district>
    <municipality>Hrachoviště</municipality>
    <part>Hrachoviště</part>
    <note>u OÚ</note>
  <location>
      <lat>48.9293708</lat>
      <lng>14.7711102</lng>
    </location>
  </callbox>
  <callbox vtaid="384396397">
    <region>Jihočeský</region>
    <district>Jindřichův Hradec</district>
    <municipality>Jarošov nad Nežárkou</municipality>
    <part>Jarošov nad Nežárkou</part>
    <note>u pošty</note>
  <location>
      <lat>49.1898947</lat>
      <lng>15.0673395</lng>
    </location>
  </callbox>
  <callbox vtaid="384388024">
    <region>Jihočeský</region>
    <district>Jindřichův Hradec</district>
    <municipality>Kačlehy</municipality>
    <part>Kačlehy</part>
    <note> u kostela</note>
  <location>
      <lat>49.1088634</lat>
      <lng>15.0770664</lng>
    </location>
  </callbox>
  <callbox vtaid="384792626">
    <region>Jihočeský</region>
    <district>Jindřichův Hradec</district>
    <municipality>Klec</municipality>
    <part>Klec</part>
    <note>u obecního úřadu</note>
  <location>
      <lat>49.0992912</lat>
      <lng>14.7483957</lng>
    </location>
  </callbox>
  <callbox vtaid="384420394">
    <region>Jihočeský</region>
    <district>Jindřichův Hradec</district>
    <municipality>Kostelní Vydří</municipality>
    <part>Kostelní Vydří</part>
    <note>u autobusové zastávky</note>
  <location>
      <lat>49.1060631</lat>
      <lng>15.4216580</lng>
    </location>
  </callbox>
  <callbox vtaid="384380178">
    <region>Jihočeský</region>
    <district>Jindřichův Hradec</district>
    <municipality>Lásenice</municipality>
    <part>Lásenice</part>
    <note>u prodejny</note>
  <location>
      <lat>49.0742913</lat>
      <lng>14.9701827</lng>
    </location>
  </callbox>
  <callbox vtaid="384792489">
    <region>Jihočeský</region>
    <district>Jindřichův Hradec</district>
    <municipality>Lomnice nad Lužnicí</municipality>
    <part>Lomnice nad Lužnicí</part>
    <street>nám. 5. května</street>
    <note>u ZŠ</note>
  <location>
      <lat>49.0816932</lat>
      <lng>14.7183139</lng>
    </location>
  </callbox>
  <callbox vtaid="384787179">
    <region>Jihočeský</region>
    <district>Jindřichův Hradec</district>
    <municipality>Majdalena</municipality>
    <part>Majdalena</part>
    <note>U sloupárny</note>
  <location>
      <lat>48.9607089</lat>
      <lng>14.8613098</lng>
    </location>
  </callbox>
  <callbox vtaid="384795932">
    <region>Jihočeský</region>
    <district>Jindřichův Hradec</district>
    <municipality>Nová Ves nad Lužnicí</municipality>
    <part>Nová Ves nad Lužnicí</part>
    <note>u obecního úřadu</note>
  <location>
      <lat>48.8106388</lat>
      <lng>14.9255754</lng>
    </location>
  </callbox>
  <callbox vtaid="384391042">
    <region>Jihočeský</region>
    <district>Jindřichův Hradec</district>
    <municipality>Okrouhlá Radouň</municipality>
    <part>Okrouhlá Radouň</part>
    <note>u prodejny</note>
  <location>
      <lat>49.2397257</lat>
      <lng>15.0170723</lng>
    </location>
  </callbox>
  <callbox vtaid="384492008">
    <region>Jihočeský</region>
    <district>Jindřichův Hradec</district>
    <municipality>Písečné</municipality>
    <part>Písečné</part>
    <note>náves</note>
  <location>
      <lat>48.9649434</lat>
      <lng>15.4623883</lng>
    </location>
  </callbox>
  <callbox vtaid="384383349">
    <region>Jihočeský</region>
    <district>Jindřichův Hradec</district>
    <municipality>Pleše</municipality>
    <part>Pleše</part>
    <note>náves u rybníka</note>
  <location>
      <lat>49.1955289</lat>
      <lng>14.8213650</lng>
    </location>
  </callbox>
  <callbox vtaid="384390646">
    <region>Jihočeský</region>
    <district>Jindřichův Hradec</district>
    <municipality>Polště</municipality>
    <part>Polště</part>
    <note>Obecní úřad</note>
  <location>
      <lat>49.1063862</lat>
      <lng>14.9278539</lng>
    </location>
  </callbox>
  <callbox vtaid="384792060">
    <region>Jihočeský</region>
    <district>Jindřichův Hradec</district>
    <municipality>Ponědrážka</municipality>
    <part>Ponědrážka</part>
    <note>Obecní úřad na návsi</note>
  <location>
      <lat>49.1365335</lat>
      <lng>14.7033194</lng>
    </location>
  </callbox>
  <callbox vtaid="384389488">
    <region>Jihočeský</region>
    <district>Jindřichův Hradec</district>
    <municipality>Příbraz</municipality>
    <part>Příbraz</part>
    <note> proti hospodě</note>
  <location>
      <lat>49.0513692</lat>
      <lng>14.9376075</lng>
    </location>
  </callbox>
  <callbox vtaid="384390924">
    <region>Jihočeský</region>
    <district>Jindřichův Hradec</district>
    <municipality>Ratiboř</municipality>
    <part>Ratiboř</part>
    <note>náves</note>
  <location>
      <lat>49.1435191</lat>
      <lng>14.9150232</lng>
    </location>
  </callbox>
  <callbox vtaid="384390959">
    <region>Jihočeský</region>
    <district>Jindřichův Hradec</district>
    <municipality>Roseč</municipality>
    <part>Roseč</part>
    <note>obec</note>
  <location>
      <lat>49.1277616</lat>
      <lng>14.9107449</lng>
    </location>
  </callbox>
  <callbox vtaid="384797839">
    <region>Jihočeský</region>
    <district>Jindřichův Hradec</district>
    <municipality>Staňkov</municipality>
    <part>Staňkov</part>
    <note>náves</note>
  <location>
      <lat>48.9795267</lat>
      <lng>14.9526982</lng>
    </location>
  </callbox>
  <callbox vtaid="384498571">
    <region>Jihočeský</region>
    <district>Jindřichův Hradec</district>
    <municipality>Staré Město pod Landštejnem</municipality>
    <part>Staré Město pod Landštejnem</part>
    <note>u obecního úřadu</note>
  <location>
      <lat>49.0033501</lat>
      <lng>15.2541294</lng>
    </location>
  </callbox>
  <callbox vtaid="384392310">
    <region>Jihočeský</region>
    <district>Jindřichův Hradec</district>
    <municipality>Strmilov</municipality>
    <part>Strmilov</part>
    <street>Náměstí</street>
    <note>u obecního úřadu</note>
  <location>
      <lat>49.1587273</lat>
      <lng>15.2016889</lng>
    </location>
  </callbox>
  <callbox vtaid="384391629">
    <region>Jihočeský</region>
    <district>Jindřichův Hradec</district>
    <municipality>Střížovice</municipality>
    <part>Střížovice</part>
    <note>u zastávky ČAD</note>
  <location>
      <lat>49.1399071</lat>
      <lng>15.1568555</lng>
    </location>
  </callbox>
  <callbox vtaid="384495230">
    <region>Jihočeský</region>
    <district>Jindřichův Hradec</district>
    <municipality>Třebětice</municipality>
    <part>Třebětice</part>
    <note>náves u zastávky</note>
  <location>
      <lat>49.0476409</lat>
      <lng>15.5207203</lng>
    </location>
  </callbox>
  <callbox vtaid="384499180">
    <region>Jihočeský</region>
    <district>Jindřichův Hradec</district>
    <municipality>Volfířov</municipality>
    <part>Brandlín</part>
    <note>aut.zastávka</note>
  <location>
      <lat>49.1068218</lat>
      <lng>15.3702531</lng>
    </location>
  </callbox>
  <callbox vtaid="384792145">
    <region>Jihočeský</region>
    <district>Jindřichův Hradec</district>
    <municipality>Záblatí</municipality>
    <part>Záblatí</part>
    <note>u Obecního úřadu na návsi</note>
  <location>
      <lat>49.1071833</lat>
      <lng>14.6861662</lng>
    </location>
  </callbox>
  <callbox vtaid="384490490">
    <region>Jihočeský</region>
    <district>Jindřichův Hradec</district>
    <municipality>Zahrádky</municipality>
    <part>Zahrádky</part>
    <note>u obecního úřadu</note>
  <location>
      <lat>49.2008109</lat>
      <lng>15.2417158</lng>
    </location>
  </callbox>
  <callbox vtaid="382585349">
    <region>Jihočeský</region>
    <district>Písek</district>
    <municipality>Bernartice</municipality>
    <part>Bernartice</part>
    <street>Týnská</street>
    <note>před poštou</note>
  <location>
      <lat>49.3661729</lat>
      <lng>14.3787093</lng>
    </location>
  </callbox>
  <callbox vtaid="382229296">
    <region>Jihočeský</region>
    <district>Písek</district>
    <municipality>Boudy</municipality>
    <part>Boudy</part>
    <note>u obchodu náves</note>
  <location>
      <lat>49.4479573</lat>
      <lng>14.0354912</lng>
    </location>
  </callbox>
  <callbox vtaid="382589127">
    <region>Jihočeský</region>
    <district>Písek</district>
    <municipality>Branice</municipality>
    <part>Branice</part>
    <note>u zastávky ČSAD,náves</note>
  <location>
      <lat>49.4024691</lat>
      <lng>14.3395399</lng>
    </location>
  </callbox>
  <callbox vtaid="382228029">
    <region>Jihočeský</region>
    <district>Písek</district>
    <municipality>Čimelice</municipality>
    <part>Čimelice</part>
    <note>u zdr. Střediska sídliště</note>
  <location>
      <lat>49.4655806</lat>
      <lng>14.0692278</lng>
    </location>
  </callbox>
  <callbox vtaid="382262207">
    <region>Jihočeský</region>
    <district>Písek</district>
    <municipality>Dobev</municipality>
    <part>Stará Dobev</part>
    <note>před obchodem</note>
  <location>
      <lat>49.2952502</lat>
      <lng>14.0484307</lng>
    </location>
  </callbox>
  <callbox vtaid="382273114">
    <region>Jihočeský</region>
    <district>Písek</district>
    <municipality>Drhovle</municipality>
    <part>Pamětice</part>
    <note>náves</note>
  <location>
      <lat>49.3338791</lat>
      <lng>14.0422700</lng>
    </location>
  </callbox>
  <callbox vtaid="382274418">
    <region>Jihočeský</region>
    <district>Písek</district>
    <municipality>Horosedly</municipality>
    <part>Horosedly</part>
    <note>náves u čp. 49 náves</note>
  <location>
      <lat>49.5127961</lat>
      <lng>14.0540066</lng>
    </location>
  </callbox>
  <callbox vtaid="382523166">
    <region>Jihočeský</region>
    <district>Písek</district>
    <municipality>Hrejkovice</municipality>
    <part>Hrejkovice</part>
    <note>u autobusové zastávky</note>
  <location>
      <lat>49.4743732</lat>
      <lng>14.2908121</lng>
    </location>
  </callbox>
  <callbox vtaid="382587261">
    <region>Jihočeský</region>
    <district>Písek</district>
    <municipality>Jetětice</municipality>
    <part>Červená</part>
    <note>Policie rekr.zař. Vltava,recepce</note>
  <location>
      <lat>49.3859548</lat>
      <lng>14.2926100</lng>
    </location>
  </callbox>
  <callbox vtaid="382286501">
    <region>Jihočeský</region>
    <district>Písek</district>
    <municipality>Kluky</municipality>
    <part>Kluky</part>
    <note>před obchodem náves</note>
  <location>
      <lat>49.3167847</lat>
      <lng>14.2452878</lng>
    </location>
  </callbox>
  <callbox vtaid="382594201">
    <region>Jihočeský</region>
    <district>Písek</district>
    <municipality>Kovářov</municipality>
    <part>Kovářov</part>
    <note>u obecního úřadu</note>
  <location>
      <lat>49.5176051</lat>
      <lng>14.2780991</lng>
    </location>
  </callbox>
  <callbox vtaid="382275390">
    <region>Jihočeský</region>
    <district>Písek</district>
    <municipality>Králova Lhota</municipality>
    <part>Králova Lhota</part>
    <note>u prodejny náves</note>
  <location>
      <lat>49.4957086</lat>
      <lng>14.1105520</lng>
    </location>
  </callbox>
  <callbox vtaid="382589105">
    <region>Jihočeský</region>
    <district>Písek</district>
    <municipality>Křižanov</municipality>
    <part>Křižanov</part>
    <note>u hl. vchodu do OÚ</note>
  <location>
      <lat>49.3987395</lat>
      <lng>14.3781372</lng>
    </location>
  </callbox>
  <callbox vtaid="382274325">
    <region>Jihočeský</region>
    <district>Písek</district>
    <municipality>Lety</municipality>
    <part>Lety</part>
    <note>u obchodu s potravinami náves</note>
  <location>
      <lat>49.5169335</lat>
      <lng>14.0877664</lng>
    </location>
  </callbox>
  <callbox vtaid="382274482">
    <region>Jihočeský</region>
    <district>Písek</district>
    <municipality>Mirovice</municipality>
    <part>Mirovice</part>
    <street>Masarykovo náměstí</street>
  <location>
      <lat>49.5154658</lat>
      <lng>14.0365674</lng>
    </location>
  </callbox>
  <callbox vtaid="382275297">
    <region>Jihočeský</region>
    <district>Písek</district>
    <municipality>Nevězice</municipality>
    <part>Nevězice</part>
    <note>u zastávky ČAD  náves</note>
  <location>
      <lat>49.4777334</lat>
      <lng>14.1533633</lng>
    </location>
  </callbox>
  <callbox vtaid="382587488">
    <region>Jihočeský</region>
    <district>Písek</district>
    <municipality>Olešná</municipality>
    <part>Olešná</part>
    <note>náves u hotelu Olešná  náves</note>
  <location>
      <lat>49.3461547</lat>
      <lng>14.3104913</lng>
    </location>
  </callbox>
  <callbox vtaid="382522148">
    <region>Jihočeský</region>
    <district>Písek</district>
    <municipality>Osek</municipality>
    <part>Osek</part>
    <note>u obchodu</note>
  <location>
      <lat>49.3084520</lat>
      <lng>14.1477480</lng>
    </location>
  </callbox>
  <callbox vtaid="382289254">
    <region>Jihočeský</region>
    <district>Písek</district>
    <municipality>Ostrovec</municipality>
    <part>Dolní Ostrovec</part>
    <note>u kaple</note>
  <location>
      <lat>49.4211426</lat>
      <lng>14.1154812</lng>
    </location>
  </callbox>
  <callbox vtaid="382587502">
    <region>Jihočeský</region>
    <district>Písek</district>
    <municipality>Podolí I</municipality>
    <part>Podolí I</part>
    <note>u obchodu Jednota náves</note>
  <location>
      <lat>49.3611645</lat>
      <lng>14.3119234</lng>
    </location>
  </callbox>
  <callbox vtaid="382273200">
    <region>Jihočeský</region>
    <district>Písek</district>
    <municipality>Předotice</municipality>
    <part>Předotice</part>
    <note>u obecního úřadu náves</note>
  <location>
      <lat>49.3649383</lat>
      <lng>14.0534254</lng>
    </location>
  </callbox>
  <callbox vtaid="382261383">
    <region>Jihočeský</region>
    <district>Písek</district>
    <municipality>Putim</municipality>
    <part>Putim</part>
    <note>u Obecního úřadu</note>
  <location>
      <lat>49.2645274</lat>
      <lng>14.1190302</lng>
    </location>
  </callbox>
  <callbox vtaid="382261396">
    <region>Jihočeský</region>
    <district>Písek</district>
    <municipality>Ražice</municipality>
    <part>Ražice</part>
    <note>u obchodu</note>
  <location>
      <lat>49.2408992</lat>
      <lng>14.1017424</lng>
    </location>
  </callbox>
  <callbox vtaid="382251978">
    <region>Jihočeský</region>
    <district>Písek</district>
    <municipality>Skály</municipality>
    <part>Skály</part>
    <note>náves</note>
  <location>
      <lat>49.2198606</lat>
      <lng>14.1601762</lng>
    </location>
  </callbox>
  <callbox vtaid="382229000">
    <region>Jihočeský</region>
    <district>Písek</district>
    <municipality>Smetanova Lhota</municipality>
    <part>Smetanova Lhota</part>
    <note>u obchodu Potraviny</note>
  <location>
      <lat>49.4476081</lat>
      <lng>14.0871663</lng>
    </location>
  </callbox>
  <callbox vtaid="382259131">
    <region>Jihočeský</region>
    <district>Písek</district>
    <municipality>Tálín</municipality>
    <part>Tálín</part>
    <note>u obchodu Smíšené zboží náves</note>
  <location>
      <lat>49.2475611</lat>
      <lng>14.2271630</lng>
    </location>
  </callbox>
  <callbox vtaid="382289232">
    <region>Jihočeský</region>
    <district>Písek</district>
    <municipality>Varvažov</municipality>
    <part>Varvažov</part>
    <note>náves nahoře</note>
  <location>
      <lat>49.4389094</lat>
      <lng>14.1425962</lng>
    </location>
  </callbox>
  <callbox vtaid="382284339">
    <region>Jihočeský</region>
    <district>Písek</district>
    <municipality>Vlastec</municipality>
    <part>Vlastec</part>
    <note>náves  náves</note>
  <location>
      <lat>49.3655715</lat>
      <lng>14.2116965</lng>
    </location>
  </callbox>
  <callbox vtaid="382284441">
    <region>Jihočeský</region>
    <district>Písek</district>
    <municipality>Záhoří</municipality>
    <part>Horní Záhoří</part>
    <note>na náměstí před školou</note>
  <location>
      <lat>49.3437281</lat>
      <lng>14.2125487</lng>
    </location>
  </callbox>
  <callbox vtaid="382585158">
    <region>Jihočeský</region>
    <district>Písek</district>
    <municipality>Zběšičky</municipality>
    <part>Zběšičky</part>
    <note> u obchodu náves</note>
  <location>
      <lat>49.3925046</lat>
      <lng>14.4264737</lng>
    </location>
  </callbox>
  <callbox vtaid="382285700">
    <region>Jihočeský</region>
    <district>Písek</district>
    <municipality>Zvíkovské Podhradí</municipality>
    <part>Zvíkovské Podhradí</part>
    <note>křižovatka náves 1407967</note>
  <location>
      <lat>49.4265777</lat>
      <lng>14.2005659</lng>
    </location>
  </callbox>
  <callbox vtaid="388423402">
    <region>Jihočeský</region>
    <district>Prachatice</district>
    <municipality>Bohumilice</municipality>
    <part>Bohumilice</part>
    <note>náves</note>
  <location>
      <lat>49.0960804</lat>
      <lng>13.8163414</lng>
    </location>
  </callbox>
  <callbox vtaid="388423630">
    <region>Jihočeský</region>
    <district>Prachatice</district>
    <municipality>Bošice</municipality>
    <part>Bošice</part>
    <note>náves</note>
  <location>
      <lat>49.0892882</lat>
      <lng>13.8403309</lng>
    </location>
  </callbox>
  <callbox vtaid="388421296">
    <region>Jihočeský</region>
    <district>Prachatice</district>
    <municipality>Buk</municipality>
    <part>Buk</part>
    <note>náves</note>
  <location>
      <lat>49.0379114</lat>
      <lng>13.8451470</lng>
    </location>
  </callbox>
  <callbox vtaid="388423251">
    <region>Jihočeský</region>
    <district>Prachatice</district>
    <municipality>Čkyně</municipality>
    <part>Čkyně</part>
    <note>u pošty</note>
  <location>
      <lat>49.1150343</lat>
      <lng>13.8290610</lng>
    </location>
  </callbox>
  <callbox vtaid="388328202">
    <region>Jihočeský</region>
    <district>Prachatice</district>
    <municipality>Dub</municipality>
    <part>Dub</part>
    <note>náves</note>
  <location>
      <lat>49.0109100</lat>
      <lng>14.0000005</lng>
    </location>
  </callbox>
  <callbox vtaid="388328736">
    <region>Jihočeský</region>
    <district>Prachatice</district>
    <municipality>Hracholusky</municipality>
    <part>Hracholusky</part>
    <note>náves, u zastávky ČSAD</note>
  <location>
      <lat>49.0587999</lat>
      <lng>14.0885369</lng>
    </location>
  </callbox>
  <callbox vtaid="388329441">
    <region>Jihočeský</region>
    <district>Prachatice</district>
    <municipality>Chlumany</municipality>
    <part>Chlumany</part>
    <note>u obecního úřadu</note>
  <location>
      <lat>49.0665695</lat>
      <lng>13.9653616</lng>
    </location>
  </callbox>
  <callbox vtaid="388324943">
    <region>Jihočeský</region>
    <district>Prachatice</district>
    <municipality>Chvalovice</municipality>
    <part>Chvalovice</part>
    <note> náves</note>
  <location>
      <lat>49.0103503</lat>
      <lng>14.2317018</lng>
    </location>
  </callbox>
  <callbox vtaid="388323531">
    <region>Jihočeský</region>
    <district>Prachatice</district>
    <municipality>Ktiš</municipality>
    <part>Ktiš</part>
    <note> náves</note>
  <location>
      <lat>48.9169818</lat>
      <lng>14.1326519</lng>
    </location>
  </callbox>
  <callbox vtaid="388435013">
    <region>Jihočeský</region>
    <district>Prachatice</district>
    <municipality>Kvilda</municipality>
    <part>Kvilda</part>
    <note>náves, u hl. silnice</note>
  <location>
      <lat>49.0192576</lat>
      <lng>13.5795796</lng>
    </location>
  </callbox>
  <callbox vtaid="388438698">
    <region>Jihočeský</region>
    <district>Prachatice</district>
    <municipality>Lenora</municipality>
    <part>Lenora</part>
    <note>u základní  školy</note>
  <location>
      <lat>48.9223148</lat>
      <lng>13.7932697</lng>
    </location>
  </callbox>
  <callbox vtaid="388329435">
    <region>Jihočeský</region>
    <district>Prachatice</district>
    <municipality>Lipovice</municipality>
    <part>Lipovice</part>
    <note>náves</note>
  <location>
      <lat>49.1005350</lat>
      <lng>13.9938807</lng>
    </location>
  </callbox>
  <callbox vtaid="388324945">
    <region>Jihočeský</region>
    <district>Prachatice</district>
    <municipality>Malovice</municipality>
    <part>Malovice</part>
    <note>náves, u obecního úřadu</note>
  <location>
      <lat>49.0911855</lat>
      <lng>14.2257626</lng>
    </location>
  </callbox>
  <callbox vtaid="388314029">
    <region>Jihočeský</region>
    <district>Prachatice</district>
    <municipality>Nebahovy</municipality>
    <part>Nebahovy</part>
    <note>náves,u obecního úřadu</note>
  <location>
      <lat>49.0057584</lat>
      <lng>14.0523359</lng>
    </location>
  </callbox>
  <callbox vtaid="388428165">
    <region>Jihočeský</region>
    <district>Prachatice</district>
    <municipality>Nicov</municipality>
    <part>Nicov</part>
    <note>náves</note>
  <location>
      <lat>49.1254378</lat>
      <lng>13.6204607</lng>
    </location>
  </callbox>
  <callbox vtaid="388434185">
    <region>Jihočeský</region>
    <district>Prachatice</district>
    <municipality>Nové Hutě</municipality>
    <part>Nové Hutě</part>
    <note> náves u obchodu</note>
  <location>
      <lat>49.0387029</lat>
      <lng>13.6456594</lng>
    </location>
  </callbox>
  <callbox vtaid="388428148">
    <region>Jihočeský</region>
    <district>Prachatice</district>
    <municipality>Stachy</municipality>
    <part>Stachy</part>
    <note>náves, u obecního úřadu</note>
  <location>
      <lat>49.1018004</lat>
      <lng>13.6665875</lng>
    </location>
  </callbox>
  <callbox vtaid="388437118">
    <region>Jihočeský</region>
    <district>Prachatice</district>
    <municipality>Strážný</municipality>
    <part>Strážný</part>
    <note>náves, u obecního úřadu</note>
  <location>
      <lat>48.9083116</lat>
      <lng>13.7203763</lng>
    </location>
  </callbox>
  <callbox vtaid="388411659">
    <region>Jihočeský</region>
    <district>Prachatice</district>
    <municipality>Svatá Maří</municipality>
    <part>Svatá Maří</part>
    <note>náves, u obchodu</note>
  <location>
      <lat>49.0645311</lat>
      <lng>13.8314305</lng>
    </location>
  </callbox>
  <callbox vtaid="388314043">
    <region>Jihočeský</region>
    <district>Prachatice</district>
    <municipality>Těšovice</municipality>
    <part>Běleč</part>
    <note>náves, u obchodu</note>
  <location>
      <lat>49.0571149</lat>
      <lng>14.0239051</lng>
    </location>
  </callbox>
  <callbox vtaid="388431197">
    <region>Jihočeský</region>
    <district>Prachatice</district>
    <municipality>Vacov</municipality>
    <part>Vacov</part>
    <note>náměstí</note>
  <location>
      <lat>49.1368702</lat>
      <lng>13.7291087</lng>
    </location>
  </callbox>
  <callbox vtaid="388329300">
    <region>Jihočeský</region>
    <district>Prachatice</district>
    <municipality>Vlachovo Březí</municipality>
    <part>Vlachovo Březí</part>
    <street>náměstí Svobody</street>
    <note>VTA - aut.zastávka</note>
  <location>
      <lat>49.0816202</lat>
      <lng>13.9591640</lng>
    </location>
  </callbox>
  <callbox vtaid="388332410">
    <region>Jihočeský</region>
    <district>Prachatice</district>
    <municipality>Záblatí</municipality>
    <part>Záblatí</part>
    <note>náves</note>
  <location>
      <lat>49.0109100</lat>
      <lng>14.0000005</lng>
    </location>
  </callbox>
  <callbox vtaid="388337210">
    <region>Jihočeský</region>
    <district>Prachatice</district>
    <municipality>Zbytiny</municipality>
    <part>Blažejovice</part>
    <note>náves</note>
  <location>
      <lat>48.9426273</lat>
      <lng>13.9780527</lng>
    </location>
  </callbox>
  <callbox vtaid="388421295">
    <region>Jihočeský</region>
    <district>Prachatice</district>
    <municipality>Žárovná</municipality>
    <part>Žárovná</part>
    <note>u obecního úřadu - náves</note>
  <location>
      <lat>49.0462017</lat>
      <lng>13.8993192</lng>
    </location>
  </callbox>
  <callbox vtaid="388314119">
    <region>Jihočeský</region>
    <district>Prachatice</district>
    <municipality>Žernovice</municipality>
    <part>Žernovice</part>
    <note>u obecního úřadu</note>
  <location>
      <lat>49.0285553</lat>
      <lng>14.0395479</lng>
    </location>
  </callbox>
  <callbox vtaid="383492490">
    <region>Jihočeský</region>
    <district>Strakonice</district>
    <municipality>Bělčice</municipality>
    <part>Bělčice</part>
    <street>nám. J. Kučery</street>
    <note>náves</note>
  <location>
      <lat>49.5030737</lat>
      <lng>13.8751672</lng>
    </location>
  </callbox>
  <callbox vtaid="383391822">
    <region>Jihočeský</region>
    <district>Strakonice</district>
    <municipality>Bílsko</municipality>
    <part>Bílsko</part>
    <note>u obecního úřadu náves</note>
  <location>
      <lat>49.1590449</lat>
      <lng>14.0590080</lng>
    </location>
  </callbox>
  <callbox vtaid="383423096">
    <region>Jihočeský</region>
    <district>Strakonice</district>
    <municipality>Buzice</municipality>
    <part>Buzice</part>
    <note>náves</note>
  <location>
      <lat>49.4226298</lat>
      <lng>13.9326147</lng>
    </location>
  </callbox>
  <callbox vtaid="383389085">
    <region>Jihočeský</region>
    <district>Strakonice</district>
    <municipality>Čejetice</municipality>
    <part>Mladějovice</part>
    <note>u obchodu</note>
  <location>
      <lat>49.2528203</lat>
      <lng>14.0203883</lng>
    </location>
  </callbox>
  <callbox vtaid="383396300">
    <region>Jihočeský</region>
    <district>Strakonice</district>
    <municipality>Čestice</municipality>
    <part>Čestice</part>
    <note>u obchodu</note>
  <location>
      <lat>49.1678285</lat>
      <lng>13.8037005</lng>
    </location>
  </callbox>
  <callbox vtaid="383376116">
    <region>Jihočeský</region>
    <district>Strakonice</district>
    <municipality>Doubravice</municipality>
    <part>Doubravice</part>
    <note>náves</note>
  <location>
      <lat>49.3520172</lat>
      <lng>13.8619243</lng>
    </location>
  </callbox>
  <callbox vtaid="383323688">
    <region>Jihočeský</region>
    <district>Strakonice</district>
    <municipality>Drachkov</municipality>
    <part>Drachkov</part>
  <location>
      <lat>49.2428238</lat>
      <lng>13.8414703</lng>
    </location>
  </callbox>
  <callbox vtaid="383323691">
    <region>Jihočeský</region>
    <district>Strakonice</district>
    <municipality>Droužetice</municipality>
    <part>Droužetice</part>
    <note>u prodejny náves</note>
  <location>
      <lat>49.2890844</lat>
      <lng>13.8980202</lng>
    </location>
  </callbox>
  <callbox vtaid="383420106">
    <region>Jihočeský</region>
    <district>Strakonice</district>
    <municipality>Hajany</municipality>
    <part>Hajany</part>
    <note>náves</note>
  <location>
      <lat>49.4465537</lat>
      <lng>13.8358727</lng>
    </location>
  </callbox>
  <callbox vtaid="383395181">
    <region>Jihočeský</region>
    <district>Strakonice</district>
    <municipality>Hoslovice</municipality>
    <part>Hoslovice</part>
    <note>vedle pož.zbrojnice</note>
  <location>
      <lat>49.1911861</lat>
      <lng>13.7630734</lng>
    </location>
  </callbox>
  <callbox vtaid="383382331">
    <region>Jihočeský</region>
    <district>Strakonice</district>
    <municipality>Chelčice</municipality>
    <part>Chelčice</part>
    <note>náves</note>
  <location>
      <lat>49.1217872</lat>
      <lng>14.1691150</lng>
    </location>
  </callbox>
  <callbox vtaid="383392443">
    <region>Jihočeský</region>
    <district>Strakonice</district>
    <municipality>Chrášťovice</municipality>
    <part>Chrášťovice</part>
    <note>náves</note>
  <location>
      <lat>49.3331923</lat>
      <lng>13.8970400</lng>
    </location>
  </callbox>
  <callbox vtaid="383491029">
    <region>Jihočeský</region>
    <district>Strakonice</district>
    <municipality>Kadov</municipality>
    <part>Kadov</part>
    <note>u obecního úřadu</note>
  <location>
      <lat>49.4027312</lat>
      <lng>13.7747814</lng>
    </location>
  </callbox>
  <callbox vtaid="383399152">
    <region>Jihočeský</region>
    <district>Strakonice</district>
    <municipality>Katovice</municipality>
    <part>Katovice</part>
    <street>Husovo náměstí</street>
    <note>náměstí</note>
  <location>
      <lat>49.2742292</lat>
      <lng>13.8287056</lng>
    </location>
  </callbox>
  <callbox vtaid="383495200">
    <region>Jihočeský</region>
    <district>Strakonice</district>
    <municipality>Kocelovice</municipality>
    <part>Kocelovice</part>
    <note>vedle OÚ náves</note>
  <location>
      <lat>49.4650717</lat>
      <lng>13.8275770</lng>
    </location>
  </callbox>
  <callbox vtaid="383397020">
    <region>Jihočeský</region>
    <district>Strakonice</district>
    <municipality>Kraselov</municipality>
    <part>Kraselov</part>
  <location>
      <lat>49.2278356</lat>
      <lng>13.8039506</lng>
    </location>
  </callbox>
  <callbox vtaid="383394126">
    <region>Jihočeský</region>
    <district>Strakonice</district>
    <municipality>Krejnice</municipality>
    <part>Krejnice</part>
    <note>Obecní úřad</note>
  <location>
      <lat>49.2337275</lat>
      <lng>13.7184839</lng>
    </location>
  </callbox>
  <callbox vtaid="383387090">
    <region>Jihočeský</region>
    <district>Strakonice</district>
    <municipality>Kváskovice</municipality>
    <part>Kváskovice</part>
    <note>u autobusové zastávky</note>
  <location>
      <lat>49.1884064</lat>
      <lng>14.0036929</lng>
    </location>
  </callbox>
  <callbox vtaid="383382616">
    <region>Jihočeský</region>
    <district>Strakonice</district>
    <municipality>Libějovice</municipality>
    <part>Libějovice</part>
    <note>na budově obecního úřadu</note>
  <location>
      <lat>49.1143393</lat>
      <lng>14.1933594</lng>
    </location>
  </callbox>
  <callbox vtaid="383495228">
    <region>Jihočeský</region>
    <district>Strakonice</district>
    <municipality>Lnáře</municipality>
    <part>Lnáře</part>
    <note>vedle OÚ a pošty náves</note>
  <location>
      <lat>49.4579059</lat>
      <lng>13.7840682</lng>
    </location>
  </callbox>
  <callbox vtaid="383421841">
    <region>Jihočeský</region>
    <district>Strakonice</district>
    <municipality>Mačkov</municipality>
    <part>Mačkov</part>
    <note>u aut.zastávky</note>
  <location>
      <lat>49.4042601</lat>
      <lng>13.8860962</lng>
    </location>
  </callbox>
  <callbox vtaid="383494400">
    <region>Jihočeský</region>
    <district>Strakonice</district>
    <municipality>Mečichov</municipality>
    <part>Mečichov</part>
    <note>proti poště</note>
  <location>
      <lat>49.3477734</lat>
      <lng>13.8120341</lng>
    </location>
  </callbox>
  <callbox vtaid="383324207">
    <region>Jihočeský</region>
    <district>Strakonice</district>
    <municipality>Miloňovice</municipality>
    <part>Miloňovice</part>
    <note>u obchodu GASTRO</note>
  <location>
      <lat>49.2205697</lat>
      <lng>13.9583688</lng>
    </location>
  </callbox>
  <callbox vtaid="383321626">
    <region>Jihočeský</region>
    <district>Strakonice</district>
    <municipality>Mutěnice</municipality>
    <part>Mutěnice</part>
    <note>u obchodu- kulturáku náves</note>
  <location>
      <lat>49.2397104</lat>
      <lng>13.8965404</lng>
    </location>
  </callbox>
  <callbox vtaid="383396180">
    <region>Jihočeský</region>
    <district>Strakonice</district>
    <municipality>Němčice</municipality>
    <part>Němčice</part>
    <note>autobus. zastávka  náves</note>
  <location>
      <lat>49.1926992</lat>
      <lng>13.8000884</lng>
    </location>
  </callbox>
  <callbox vtaid="383373129">
    <region>Jihočeský</region>
    <district>Strakonice</district>
    <municipality>Nihošovice</municipality>
    <part>Nihošovice</part>
    <note>zastávka ČSAD náves</note>
  <location>
      <lat>49.1882670</lat>
      <lng>13.8617117</lng>
    </location>
  </callbox>
  <callbox vtaid="383395082">
    <region>Jihočeský</region>
    <district>Strakonice</district>
    <municipality>Nová Ves</municipality>
    <part>Nová Ves</part>
    <note>náves</note>
  <location>
      <lat>49.1873947</lat>
      <lng>13.7336681</lng>
    </location>
  </callbox>
  <callbox vtaid="383392440">
    <region>Jihočeský</region>
    <district>Strakonice</district>
    <municipality>Osek</municipality>
    <part>Osek</part>
    <note>u obecního úřadu</note>
  <location>
      <lat>49.3183078</lat>
      <lng>13.9631914</lng>
    </location>
  </callbox>
  <callbox vtaid="383323689">
    <region>Jihočeský</region>
    <district>Strakonice</district>
    <municipality>Pracejovice</municipality>
    <part>Pracejovice</part>
    <note>náves</note>
  <location>
      <lat>49.2571874</lat>
      <lng>13.8491307</lng>
    </location>
  </callbox>
  <callbox vtaid="383373769">
    <region>Jihočeský</region>
    <district>Strakonice</district>
    <municipality>Předslavice</municipality>
    <part>Předslavice</part>
    <note>náves</note>
  <location>
      <lat>49.1320379</lat>
      <lng>13.9350563</lng>
    </location>
  </callbox>
  <callbox vtaid="383393143">
    <region>Jihočeský</region>
    <district>Strakonice</district>
    <municipality>Přešťovice</municipality>
    <part>Přešťovice</part>
    <note>u obecního úřadu</note>
  <location>
      <lat>49.2771780</lat>
      <lng>13.9743423</lng>
    </location>
  </callbox>
  <callbox vtaid="383323680">
    <region>Jihočeský</region>
    <district>Strakonice</district>
    <municipality>Radošovice</municipality>
    <part>Radošovice</part>
    <note>u obecního úřadu</note>
  <location>
      <lat>49.2335251</lat>
      <lng>13.8985732</lng>
    </location>
  </callbox>
  <callbox vtaid="383323686">
    <region>Jihočeský</region>
    <district>Strakonice</district>
    <municipality>Řepice</municipality>
    <part>Řepice</part>
    <note>u obecního úřadu</note>
  <location>
      <lat>49.2805119</lat>
      <lng>13.9334388</lng>
    </location>
  </callbox>
  <callbox vtaid="383380145">
    <region>Jihočeský</region>
    <district>Strakonice</district>
    <municipality>Skočice</municipality>
    <part>Skočice</part>
    <note>u pošty</note>
  <location>
      <lat>49.1861153</lat>
      <lng>14.1042652</lng>
    </location>
  </callbox>
  <callbox vtaid="383324145">
    <region>Jihočeský</region>
    <district>Strakonice</district>
    <municipality>Sousedovice</municipality>
    <part>Sousedovice</part>
    <note>u restaurace  náves</note>
  <location>
      <lat>49.2320553</lat>
      <lng>13.8685281</lng>
    </location>
  </callbox>
  <callbox vtaid="383373128">
    <region>Jihočeský</region>
    <district>Strakonice</district>
    <municipality>Strunkovice nad Volyňkou</municipality>
    <part>Strunkovice nad Volyňkou</part>
  <location>
      <lat>49.2084997</lat>
      <lng>13.8893314</lng>
    </location>
  </callbox>
  <callbox vtaid="383496010">
    <region>Jihočeský</region>
    <district>Strakonice</district>
    <municipality>Škvořetice</municipality>
    <part>Škvořetice</part>
    <note>na budově kulturního domu - Disco Babylon</note>
  <location>
      <lat>49.4024154</lat>
      <lng>13.9491240</lng>
    </location>
  </callbox>
  <callbox vtaid="383393165">
    <region>Jihočeský</region>
    <district>Strakonice</district>
    <municipality>Štěkeň</municipality>
    <part>Štěkeň</part>
    <street>Na Městečku</street>
    <note>náves náves</note>
  <location>
      <lat>49.2676150</lat>
      <lng>14.0086853</lng>
    </location>
  </callbox>
  <callbox vtaid="383382600">
    <region>Jihočeský</region>
    <district>Strakonice</district>
    <municipality>Truskovice</municipality>
    <part>Truskovice</part>
    <note>u obchodu</note>
  <location>
      <lat>49.1040634</lat>
      <lng>14.1610958</lng>
    </location>
  </callbox>
  <callbox vtaid="383392072">
    <region>Jihočeský</region>
    <district>Strakonice</district>
    <municipality>Třešovice</municipality>
    <part>Třešovice</part>
  <location>
      <lat>49.2113236</lat>
      <lng>13.9813504</lng>
    </location>
  </callbox>
  <callbox vtaid="383490007">
    <region>Jihočeský</region>
    <district>Strakonice</district>
    <municipality>Uzeničky</municipality>
    <part>Uzeničky</part>
    <note>náves</note>
  <location>
      <lat>49.4888719</lat>
      <lng>13.9524065</lng>
    </location>
  </callbox>
  <callbox vtaid="383394204">
    <region>Jihočeský</region>
    <district>Strakonice</district>
    <municipality>Volenice</municipality>
    <part>Volenice</part>
    <note>náves</note>
  <location>
      <lat>49.2523969</lat>
      <lng>13.7478856</lng>
    </location>
  </callbox>
  <callbox vtaid="381231367">
    <region>Jihočeský</region>
    <district>Tábor</district>
    <municipality>Balkova Lhota</municipality>
    <part>Balkova Lhota</part>
    <note>u kaple</note>
  <location>
      <lat>49.4520236</lat>
      <lng>14.6082191</lng>
    </location>
  </callbox>
  <callbox vtaid="381580199">
    <region>Jihočeský</region>
    <district>Tábor</district>
    <municipality>Borkovice</municipality>
    <part>Borkovice</part>
    <note>u prodejny</note>
  <location>
      <lat>49.2079482</lat>
      <lng>14.6434319</lng>
    </location>
  </callbox>
  <callbox vtaid="381219913">
    <region>Jihočeský</region>
    <district>Tábor</district>
    <municipality>Březnice</municipality>
    <part>Březnice</part>
    <note>u kaple</note>
  <location>
      <lat>49.2517737</lat>
      <lng>14.5139891</lng>
    </location>
  </callbox>
  <callbox vtaid="381596727">
    <region>Jihočeský</region>
    <district>Tábor</district>
    <municipality>Dírná</municipality>
    <part>Dírná</part>
    <note>náves u prodejny</note>
  <location>
      <lat>49.2428670</lat>
      <lng>14.8447673</lng>
    </location>
  </callbox>
  <callbox vtaid="381211840">
    <region>Jihočeský</region>
    <district>Tábor</district>
    <municipality>Dobronice u Bechyně</municipality>
    <part>Dobronice u Bechyně</part>
    <note>penzion U jezu</note>
  <location>
      <lat>49.3433111</lat>
      <lng>14.4967375</lng>
    </location>
  </callbox>
  <callbox vtaid="381283007">
    <region>Jihočeský</region>
    <district>Tábor</district>
    <municipality>Dolní Hrachovice</municipality>
    <part>Dolní Hrachovice</part>
    <note>u kaple</note>
  <location>
      <lat>49.4860818</lat>
      <lng>14.7971035</lng>
    </location>
  </callbox>
  <callbox vtaid="381521186">
    <region>Jihočeský</region>
    <district>Tábor</district>
    <municipality>Dráchov</municipality>
    <part>Dráchov</part>
    <note>u prodejny</note>
  <location>
      <lat>49.2264385</lat>
      <lng>14.7066238</lng>
    </location>
  </callbox>
  <callbox vtaid="381239017">
    <region>Jihočeský</region>
    <district>Tábor</district>
    <municipality>Drhovice</municipality>
    <part>Drhovice</part>
    <note>u hlavní silnice</note>
  <location>
      <lat>49.4328148</lat>
      <lng>14.5583811</lng>
    </location>
  </callbox>
  <callbox vtaid="381591023">
    <region>Jihočeský</region>
    <district>Tábor</district>
    <municipality>Hlavatce</municipality>
    <part>Hlavatce</part>
    <note>náves u prodejny</note>
  <location>
      <lat>49.2954975</lat>
      <lng>14.6212147</lng>
    </location>
  </callbox>
  <callbox vtaid="381219002">
    <region>Jihočeský</region>
    <district>Tábor</district>
    <municipality>Hodonice</municipality>
    <part>Hodonice</part>
    <note>náves</note>
  <location>
      <lat>49.2685262</lat>
      <lng>14.4873663</lng>
    </location>
  </callbox>
  <callbox vtaid="381284803">
    <region>Jihočeský</region>
    <district>Tábor</district>
    <municipality>Chotoviny</municipality>
    <part>Červené Záhoří</part>
    <street>Táborská</street>
    <note>u vlakového nádraží</note>
  <location>
      <lat>49.4732968</lat>
      <lng>14.6692838</lng>
    </location>
  </callbox>
  <callbox vtaid="381298033">
    <region>Jihočeský</region>
    <district>Tábor</district>
    <municipality>Chrbonín</municipality>
    <part>Chrbonín</part>
    <note>u OÚ</note>
  <location>
      <lat>49.3586660</lat>
      <lng>14.8643005</lng>
    </location>
  </callbox>
  <callbox vtaid="381591320">
    <region>Jihočeský</region>
    <district>Tábor</district>
    <municipality>Komárov</municipality>
    <part>Komárov</part>
    <note>náves</note>
  <location>
      <lat>49.2500670</lat>
      <lng>14.5940238</lng>
    </location>
  </callbox>
  <callbox vtaid="381231130">
    <region>Jihočeský</region>
    <district>Tábor</district>
    <municipality>Košín</municipality>
    <part>Košín</part>
    <note>požární zbrojnice,parc.33,ROP4064701</note>
  <location>
      <lat>49.4564075</lat>
      <lng>14.6584479</lng>
    </location>
  </callbox>
  <callbox vtaid="381592102">
    <region>Jihočeský</region>
    <district>Tábor</district>
    <municipality>Krtov</municipality>
    <part>Krtov</part>
    <note>autobusová zastávka</note>
  <location>
      <lat>49.3484531</lat>
      <lng>14.8324835</lng>
    </location>
  </callbox>
  <callbox vtaid="381277331">
    <region>Jihočeský</region>
    <district>Tábor</district>
    <municipality>Malšice</municipality>
    <part>Malšice</part>
    <street>náměstí V. Háka</street>
    <note>u parku</note>
  <location>
      <lat>49.3630801</lat>
      <lng>14.5767955</lng>
    </location>
  </callbox>
  <callbox vtaid="381239001">
    <region>Jihočeský</region>
    <district>Tábor</district>
    <municipality>Meziříčí</municipality>
    <part>Meziříčí</part>
    <note>u obchodu</note>
  <location>
      <lat>49.4365464</lat>
      <lng>14.5750255</lng>
    </location>
  </callbox>
  <callbox vtaid="381520009">
    <region>Jihočeský</region>
    <district>Tábor</district>
    <municipality>Myslkovice</municipality>
    <part>Myslkovice</part>
  <location>
      <lat>49.2991242</lat>
      <lng>14.7455995</lng>
    </location>
  </callbox>
  <callbox vtaid="381286216">
    <region>Jihočeský</region>
    <district>Tábor</district>
    <municipality>Nemyšl</municipality>
    <part>Nemyšl</part>
    <note>u obchodu</note>
  <location>
      <lat>49.5133819</lat>
      <lng>14.6929105</lng>
    </location>
  </callbox>
  <callbox vtaid="381210009">
    <region>Jihočeský</region>
    <district>Tábor</district>
    <municipality>Nová Ves u Mladé Vožice</municipality>
    <part>Nová Ves u Mladé Vožice</part>
    <note>u obchodu</note>
  <location>
      <lat>49.5430339</lat>
      <lng>14.7479664</lng>
    </location>
  </callbox>
  <callbox vtaid="381287017">
    <region>Jihočeský</region>
    <district>Tábor</district>
    <municipality>Opařany</municipality>
    <part>Opařany</part>
    <note>před obecním úřadem</note>
  <location>
      <lat>49.3967841</lat>
      <lng>14.4813772</lng>
    </location>
  </callbox>
  <callbox vtaid="381521211">
    <region>Jihočeský</region>
    <district>Tábor</district>
    <municipality>Přehořov</municipality>
    <part>Přehořov</part>
    <note>u bytovek</note>
  <location>
      <lat>49.2475993</lat>
      <lng>14.7562340</lng>
    </location>
  </callbox>
  <callbox vtaid="381298071">
    <region>Jihočeský</region>
    <district>Tábor</district>
    <municipality>Radenín</municipality>
    <part>Kozmice</part>
    <note>náves</note>
  <location>
      <lat>49.3693860</lat>
      <lng>14.8406826</lng>
    </location>
  </callbox>
  <callbox vtaid="381278126">
    <region>Jihočeský</region>
    <district>Tábor</district>
    <municipality>Radimovice u Želče</municipality>
    <part>Radimovice u Želče</part>
    <note>u restaurace</note>
  <location>
      <lat>49.3772706</lat>
      <lng>14.6475545</lng>
    </location>
  </callbox>
  <callbox vtaid="381211856">
    <region>Jihočeský</region>
    <district>Tábor</district>
    <municipality>Rataje</municipality>
    <part>Rataje</part>
    <note>u obchodu</note>
  <location>
      <lat>49.3501488</lat>
      <lng>14.4457400</lng>
    </location>
  </callbox>
  <callbox vtaid="381214391">
    <region>Jihočeský</region>
    <district>Tábor</district>
    <municipality>Rodná</municipality>
    <part>Rodná</part>
    <note>náves u rybníka</note>
  <location>
      <lat>49.4901635</lat>
      <lng>14.8424999</lng>
    </location>
  </callbox>
  <callbox vtaid="381287001">
    <region>Jihočeský</region>
    <district>Tábor</district>
    <municipality>Řepeč</municipality>
    <part>Řepeč</part>
    <note>náves- před prodejnou</note>
  <location>
      <lat>49.4034440</lat>
      <lng>14.5195602</lng>
    </location>
  </callbox>
  <callbox vtaid="381522153">
    <region>Jihočeský</region>
    <district>Tábor</district>
    <municipality>Sedlečko u Soběslavě</municipality>
    <part>Sedlečko u Soběslavě</part>
    <note>u OÚ</note>
  <location>
      <lat>49.2826836</lat>
      <lng>14.7428591</lng>
    </location>
  </callbox>
  <callbox vtaid="381278282">
    <region>Jihočeský</region>
    <district>Tábor</district>
    <municipality>Slapy</municipality>
    <part>Slapy</part>
    <note>u obecního úřadu</note>
  <location>
      <lat>49.4129888</lat>
      <lng>14.6774664</lng>
    </location>
  </callbox>
  <callbox vtaid="381287002">
    <region>Jihočeský</region>
    <district>Tábor</district>
    <municipality>Stádlec</municipality>
    <part>Stádlec</part>
    <note>u pošty</note>
  <location>
      <lat>49.3796003</lat>
      <lng>14.4950686</lng>
    </location>
  </callbox>
  <callbox vtaid="381286115">
    <region>Jihočeský</region>
    <district>Tábor</district>
    <municipality>Sudoměřice u Tábora</municipality>
    <part>Sudoměřice u Tábora</part>
    <note>náves u obchodního domu</note>
  <location>
      <lat>49.5101952</lat>
      <lng>14.6584946</lng>
    </location>
  </callbox>
  <callbox vtaid="381210080">
    <region>Jihočeský</region>
    <district>Tábor</district>
    <municipality>Šebířov</municipality>
    <part>Vyšetice</part>
    <note>u obchodu</note>
  <location>
      <lat>49.5661108</lat>
      <lng>14.8259302</lng>
    </location>
  </callbox>
  <callbox vtaid="381297199">
    <region>Jihočeský</region>
    <district>Tábor</district>
    <municipality>Turovec</municipality>
    <part>Turovec</part>
    <note>náves</note>
  <location>
      <lat>49.3783589</lat>
      <lng>14.7689360</lng>
    </location>
  </callbox>
  <callbox vtaid="381581299">
    <region>Jihočeský</region>
    <district>Tábor</district>
    <municipality>Val</municipality>
    <part>Val</part>
    <note>náves</note>
  <location>
      <lat>49.1460554</lat>
      <lng>14.7560426</lng>
    </location>
  </callbox>
  <callbox vtaid="381214011">
    <region>Jihočeský</region>
    <district>Tábor</district>
    <municipality>Vilice</municipality>
    <part>Vilice</part>
    <note>u obecního úřadu</note>
  <location>
      <lat>49.5644735</lat>
      <lng>14.8643148</lng>
    </location>
  </callbox>
  <callbox vtaid="381581119">
    <region>Jihočeský</region>
    <district>Tábor</district>
    <municipality>Vlkov</municipality>
    <part>Vlkov</part>
    <note>u obecního úřadu</note>
  <location>
      <lat>49.1511907</lat>
      <lng>14.7252256</lng>
    </location>
  </callbox>
  <callbox vtaid="381580002">
    <region>Jihočeský</region>
    <district>Tábor</district>
    <municipality>Zálší</municipality>
    <part>Zálší</part>
    <note>náves</note>
  <location>
      <lat>49.2179220</lat>
      <lng>14.5991917</lng>
    </location>
  </callbox>
  <callbox vtaid="381581097">
    <region>Jihočeský</region>
    <district>Tábor</district>
    <municipality>Zlukov</municipality>
    <part>Zlukov</part>
    <note>u kapličky</note>
  <location>
      <lat>49.1929333</lat>
      <lng>14.7450876</lng>
    </location>
  </callbox>
  <callbox vtaid="381591001">
    <region>Jihočeský</region>
    <district>Tábor</district>
    <municipality>Želeč</municipality>
    <part>Želeč</part>
    <note>u zastávky autobusu</note>
  <location>
      <lat>49.3183418</lat>
      <lng>14.6466340</lng>
    </location>
  </callbox>
  <callbox vtaid="516472686">
    <region>Jihomoravský</region>
    <district>Blansko</district>
    <municipality>Bedřichov</municipality>
    <part>Bedřichov</part>
    <note>náves</note>
  <location>
      <lat>49.4611756</lat>
      <lng>16.4653225</lng>
    </location>
  </callbox>
  <callbox vtaid="516477649">
    <region>Jihomoravský</region>
    <district>Blansko</district>
    <municipality>Borotín</municipality>
    <part>Borotín</part>
    <note>na zdi Jednoty</note>
  <location>
      <lat>49.5813469</lat>
      <lng>16.6714849</lng>
    </location>
  </callbox>
  <callbox vtaid="516437031">
    <region>Jihomoravský</region>
    <district>Blansko</district>
    <municipality>Brťov-Jeneč</municipality>
    <part>Brťov u Černé Hory</part>
    <street>Luční</street>
    <note>u prodejny</note>
  <location>
      <lat>49.4140180</lat>
      <lng>16.5103640</lng>
    </location>
  </callbox>
  <callbox vtaid="516439492">
    <region>Jihomoravský</region>
    <district>Blansko</district>
    <municipality>Bukovinka</municipality>
    <part>Bukovinka</part>
    <note>u OÚ</note>
  <location>
      <lat>49.2941793</lat>
      <lng>16.8049393</lng>
    </location>
  </callbox>
  <callbox vtaid="516477707">
    <region>Jihomoravský</region>
    <district>Blansko</district>
    <municipality>Cetkovice</municipality>
    <part>Cetkovice</part>
    <street>Náves</street>
    <note>před OÚ</note>
  <location>
      <lat>49.5782422</lat>
      <lng>16.7211292</lng>
    </location>
  </callbox>
  <callbox vtaid="516437496">
    <region>Jihomoravský</region>
    <district>Blansko</district>
    <municipality>Černá Hora</municipality>
    <part>Černá Hora</part>
    <street>nám. U Pivovaru</street>
    <note>u cukrárny</note>
  <location>
      <lat>49.4147791</lat>
      <lng>16.5820030</lng>
    </location>
  </callbox>
  <callbox vtaid="516475998">
    <region>Jihomoravský</region>
    <district>Blansko</district>
    <municipality>Deštná</municipality>
    <part>Deštná</part>
    <note>Náves</note>
  <location>
      <lat>49.6125528</lat>
      <lng>16.5635588</lng>
    </location>
  </callbox>
  <callbox vtaid="516432704">
    <region>Jihomoravský</region>
    <district>Blansko</district>
    <municipality>Doubravice nad Svitavou</municipality>
    <part>Doubravice nad Svitavou</part>
    <street>náměstí Svobody</street>
    <note>u OÚ</note>
  <location>
      <lat>49.4356556</lat>
      <lng>16.6293766</lng>
    </location>
  </callbox>
  <callbox vtaid="516439491">
    <region>Jihomoravský</region>
    <district>Blansko</district>
    <municipality>Habrůvka</municipality>
    <part>Habrůvka</part>
    <note>u zastávky ČSAD náves</note>
  <location>
      <lat>49.3034997</lat>
      <lng>16.7235200</lng>
    </location>
  </callbox>
  <callbox vtaid="516435591">
    <region>Jihomoravský</region>
    <district>Blansko</district>
    <municipality>Holštejn</municipality>
    <part>Holštejn</part>
    <note>U zastávky ČSAD náves</note>
  <location>
      <lat>49.4063862</lat>
      <lng>16.7777036</lng>
    </location>
  </callbox>
  <callbox vtaid="516475097">
    <region>Jihomoravský</region>
    <district>Blansko</district>
    <municipality>Horní Smržov</municipality>
    <part>Horní Smržov</part>
    <note>u OÚ</note>
  <location>
      <lat>49.6182578</lat>
      <lng>16.5769847</lng>
    </location>
  </callbox>
  <callbox vtaid="516469399">
    <region>Jihomoravský</region>
    <district>Blansko</district>
    <municipality>Jabloňany</municipality>
    <part>Jabloňany</part>
    <note>u prodejny</note>
  <location>
      <lat>49.4656133</lat>
      <lng>16.6060003</lng>
    </location>
  </callbox>
  <callbox vtaid="516465473">
    <region>Jihomoravský</region>
    <district>Blansko</district>
    <municipality>Knínice u Boskovic</municipality>
    <part>Knínice u Boskovic</part>
    <note>u OÚ</note>
  <location>
      <lat>49.5395884</lat>
      <lng>16.6950297</lng>
    </location>
  </callbox>
  <callbox vtaid="516442400">
    <region>Jihomoravský</region>
    <district>Blansko</district>
    <municipality>Kotvrdovice</municipality>
    <part>Kotvrdovice</part>
    <note>u prodejny</note>
  <location>
      <lat>49.3551057</lat>
      <lng>16.7843591</lng>
    </location>
  </callbox>
  <callbox vtaid="516442208">
    <region>Jihomoravský</region>
    <district>Blansko</district>
    <municipality>Krasová</municipality>
    <part>Krasová</part>
    <note>náves u prodejny</note>
  <location>
      <lat>49.3613758</lat>
      <lng>16.7679348</lng>
    </location>
  </callbox>
  <callbox vtaid="516470729">
    <region>Jihomoravský</region>
    <district>Blansko</district>
    <municipality>Křetín</municipality>
    <part>Křetín</part>
    <note>u MŠ</note>
  <location>
      <lat>49.5631041</lat>
      <lng>16.5044060</lng>
    </location>
  </callbox>
  <callbox vtaid="516439121">
    <region>Jihomoravský</region>
    <district>Blansko</district>
    <municipality>Křtiny</municipality>
    <part>Křtiny</part>
    <note>u OÚ</note>
  <location>
      <lat>49.2970551</lat>
      <lng>16.7440945</lng>
    </location>
  </callbox>
  <callbox vtaid="516472685">
    <region>Jihomoravský</region>
    <district>Blansko</district>
    <municipality>Kunice</municipality>
    <part>Kunice</part>
    <note>u prodejny</note>
  <location>
      <lat>49.4788257</lat>
      <lng>16.4907340</lng>
    </location>
  </callbox>
  <callbox vtaid="516470795">
    <region>Jihomoravský</region>
    <district>Blansko</district>
    <municipality>Lazinov</municipality>
    <part>Lazinov</part>
    <note>náves</note>
  <location>
      <lat>49.5638127</lat>
      <lng>16.5233947</lng>
    </location>
  </callbox>
  <callbox vtaid="516453608">
    <region>Jihomoravský</region>
    <district>Blansko</district>
    <municipality>Lhota Rapotina</municipality>
    <part>Lhota Rapotina</part>
    <note>Náves</note>
  <location>
      <lat>49.4660463</lat>
      <lng>16.6248537</lng>
    </location>
  </callbox>
  <callbox vtaid="516463395">
    <region>Jihomoravský</region>
    <district>Blansko</district>
    <municipality>Lhota u Olešnice</municipality>
    <part>Lhota u Olešnice</part>
    <note>u koupaliště</note>
  <location>
      <lat>49.5448089</lat>
      <lng>16.3907292</lng>
    </location>
  </callbox>
  <callbox vtaid="516431538">
    <region>Jihomoravský</region>
    <district>Blansko</district>
    <municipality>Lipůvka</municipality>
    <part>Lipůvka</part>
    <note>náměstí - parkoviště</note>
  <location>
      <lat>49.3402815</lat>
      <lng>16.5529044</lng>
    </location>
  </callbox>
  <callbox vtaid="516437030">
    <region>Jihomoravský</region>
    <district>Blansko</district>
    <municipality>Lubě</municipality>
    <part>Lubě</part>
    <note>náves</note>
  <location>
      <lat>49.3961737</lat>
      <lng>16.5259677</lng>
    </location>
  </callbox>
  <callbox vtaid="516472485">
    <region>Jihomoravský</region>
    <district>Blansko</district>
    <municipality>Lysice</municipality>
    <part>Lysice</part>
    <street>nám. Osvobození</street>
    <note>u pošty</note>
  <location>
      <lat>49.4520174</lat>
      <lng>16.5362563</lng>
    </location>
  </callbox>
  <callbox vtaid="516477399">
    <region>Jihomoravský</region>
    <district>Blansko</district>
    <municipality>Malá Roudka</municipality>
    <part>Skočova Lhota</part>
    <note>Náves</note>
  <location>
      <lat>49.6016804</lat>
      <lng>16.6444742</lng>
    </location>
  </callbox>
  <callbox vtaid="516437035">
    <region>Jihomoravský</region>
    <district>Blansko</district>
    <municipality>Milonice</municipality>
    <part>Milonice</part>
    <note>Na návsi</note>
  <location>
      <lat>49.3664711</lat>
      <lng>16.5683590</lng>
    </location>
  </callbox>
  <callbox vtaid="516475799">
    <region>Jihomoravský</region>
    <district>Blansko</district>
    <municipality>Nýrov</municipality>
    <part>Nýrov</part>
    <note>u OÚ</note>
  <location>
      <lat>49.5279826</lat>
      <lng>16.5391646</lng>
    </location>
  </callbox>
  <callbox vtaid="516467299">
    <region>Jihomoravský</region>
    <district>Blansko</district>
    <municipality>Okrouhlá</municipality>
    <part>Okrouhlá</part>
    <note>u potravin</note>
  <location>
      <lat>49.5075038</lat>
      <lng>16.7320029</lng>
    </location>
  </callbox>
  <callbox vtaid="516417392">
    <region>Jihomoravský</region>
    <district>Blansko</district>
    <municipality>Olomučany</municipality>
    <part>Olomučany</part>
    <note>u OÚ</note>
  <location>
      <lat>49.3308695</lat>
      <lng>16.6716907</lng>
    </location>
  </callbox>
  <callbox vtaid="516475897">
    <region>Jihomoravský</region>
    <district>Blansko</district>
    <municipality>Pamětice</municipality>
    <part>Pamětice</part>
    <note>u potravin</note>
  <location>
      <lat>49.5494630</lat>
      <lng>16.6444937</lng>
    </location>
  </callbox>
  <callbox vtaid="516435491">
    <region>Jihomoravský</region>
    <district>Blansko</district>
    <municipality>Petrovice</municipality>
    <part>Petrovice</part>
    <note>směr náves - na levo</note>
  <location>
      <lat>49.4118641</lat>
      <lng>16.6997495</lng>
    </location>
  </callbox>
  <callbox vtaid="516433999">
    <region>Jihomoravský</region>
    <district>Blansko</district>
    <municipality>Ráječko</municipality>
    <part>Ráječko</part>
    <street>nám. 1. máje</street>
    <note>u obecního úřadu</note>
  <location>
      <lat>49.3941718</lat>
      <lng>16.6452035</lng>
    </location>
  </callbox>
  <callbox vtaid="516462712">
    <region>Jihomoravský</region>
    <district>Blansko</district>
    <municipality>Rozseč nad Kunštátem</municipality>
    <part>Rozseč nad Kunštátem</part>
    <note>na OU</note>
  <location>
      <lat>49.5064506</lat>
      <lng>16.5172244</lng>
    </location>
  </callbox>
  <callbox vtaid="516442200">
    <region>Jihomoravský</region>
    <district>Blansko</district>
    <municipality>Rudice</municipality>
    <part>Rudice</part>
    <street>Dědinská</street>
    <note>autobusová točna</note>
  <location>
      <lat>49.3371471</lat>
      <lng>16.7255710</lng>
    </location>
  </callbox>
  <callbox vtaid="516442228">
    <region>Jihomoravský</region>
    <district>Blansko</district>
    <municipality>Senetářov</municipality>
    <part>Senetářov</part>
    <note>u stolařství Romaneta</note>
  <location>
      <lat>49.3546810</lat>
      <lng>16.8038902</lng>
    </location>
  </callbox>
  <callbox vtaid="516475399">
    <region>Jihomoravský</region>
    <district>Blansko</district>
    <municipality>Skrchov</municipality>
    <part>Skrchov</part>
    <note>místní název Borová</note>
  <location>
      <lat>49.5777301</lat>
      <lng>16.5493640</lng>
    </location>
  </callbox>
  <callbox vtaid="516432490">
    <region>Jihomoravský</region>
    <district>Blansko</district>
    <municipality>Spešov</municipality>
    <part>Spešov</part>
    <note> u OÚ</note>
  <location>
      <lat>49.3947906</lat>
      <lng>16.6292881</lng>
    </location>
  </callbox>
  <callbox vtaid="516465266">
    <region>Jihomoravský</region>
    <district>Blansko</district>
    <municipality>Sudice</municipality>
    <part>Sudice</part>
    <note>u potravin</note>
  <location>
      <lat>49.5299002</lat>
      <lng>16.6685283</lng>
    </location>
  </callbox>
  <callbox vtaid="516465399">
    <region>Jihomoravský</region>
    <district>Blansko</district>
    <municipality>Světlá</municipality>
    <part>Světlá</part>
    <note>Bus</note>
  <location>
      <lat>49.5658584</lat>
      <lng>16.7181975</lng>
    </location>
  </callbox>
  <callbox vtaid="516471248">
    <region>Jihomoravský</region>
    <district>Blansko</district>
    <municipality>Svitávka</municipality>
    <part>Svitávka</part>
    <street>Hybešova</street>
    <note>u   Supermarketu  </note>
  <location>
      <lat>49.5032256</lat>
      <lng>16.5979984</lng>
    </location>
  </callbox>
  <callbox vtaid="516431590">
    <region>Jihomoravský</region>
    <district>Blansko</district>
    <municipality>Šebrov-Kateřina</municipality>
    <part>Svatá Kateřina</part>
    <note>u prodejny</note>
  <location>
      <lat>49.3284977</lat>
      <lng>16.6024475</lng>
    </location>
  </callbox>
  <callbox vtaid="516460010">
    <region>Jihomoravský</region>
    <district>Blansko</district>
    <municipality>Tasovice</municipality>
    <part>Tasovice</part>
    <note>na zdi Obecního úřadu</note>
  <location>
      <lat>49.4959432</lat>
      <lng>16.4415328</lng>
    </location>
  </callbox>
  <callbox vtaid="516453629">
    <region>Jihomoravský</region>
    <district>Blansko</district>
    <municipality>Újezd u Boskovic</municipality>
    <part>Újezd u Boskovic</part>
    <note>Náves</note>
  <location>
      <lat>49.4638984</lat>
      <lng>16.6541687</lng>
    </location>
  </callbox>
  <callbox vtaid="516477122">
    <region>Jihomoravský</region>
    <district>Blansko</district>
    <municipality>Úsobrno</municipality>
    <part>Úsobrno</part>
    <note>u OÚ</note>
  <location>
      <lat>49.5889234</lat>
      <lng>16.7628883</lng>
    </location>
  </callbox>
  <callbox vtaid="516465432">
    <region>Jihomoravský</region>
    <district>Blansko</district>
    <municipality>Vanovice</municipality>
    <part>Vanovice</part>
    <note>u potravin</note>
  <location>
      <lat>49.5672782</lat>
      <lng>16.6662131</lng>
    </location>
  </callbox>
  <callbox vtaid="516417398">
    <region>Jihomoravský</region>
    <district>Blansko</district>
    <municipality>Vavřinec</municipality>
    <part>Vavřinec</part>
    <note>Punkevní jeskyně - vestibul</note>
  <location>
      <lat>49.4026022</lat>
      <lng>16.7198494</lng>
    </location>
  </callbox>
  <callbox vtaid="516442693">
    <region>Jihomoravský</region>
    <district>Blansko</district>
    <municipality>Vilémovice</municipality>
    <part>Vilémovice</part>
    <note>Náves</note>
  <location>
      <lat>49.3637857</lat>
      <lng>16.7467337</lng>
    </location>
  </callbox>
  <callbox vtaid="516472689">
    <region>Jihomoravský</region>
    <district>Blansko</district>
    <municipality>Voděrady</municipality>
    <part>Voděrady</part>
    <note>u prodejny Jednota</note>
  <location>
      <lat>49.4814981</lat>
      <lng>16.5578962</lng>
    </location>
  </callbox>
  <callbox vtaid="516437037">
    <region>Jihomoravský</region>
    <district>Blansko</district>
    <municipality>Závist</municipality>
    <part>Závist</part>
    <note>u OÚ náves</note>
  <location>
      <lat>49.3751721</lat>
      <lng>16.5720505</lng>
    </location>
  </callbox>
  <callbox vtaid="516435739">
    <region>Jihomoravský</region>
    <district>Blansko</district>
    <municipality>Žďár</municipality>
    <part>Žďár</part>
    <note>u OÚ náves</note>
  <location>
      <lat>49.4215753</lat>
      <lng>16.6977840</lng>
    </location>
  </callbox>
  <callbox vtaid="516437038">
    <region>Jihomoravský</region>
    <district>Blansko</district>
    <municipality>Žernovník</municipality>
    <part>Žernovník</part>
    <note>u OÚ</note>
  <location>
      <lat>49.4069335</lat>
      <lng>16.5454730</lng>
    </location>
  </callbox>
  <callbox vtaid="545237111">
    <region>Jihomoravský</region>
    <district>Brno-venkov</district>
    <municipality>Babice nad Svitavou</municipality>
    <part>Babice nad Svitavou</part>
    <note>u obchodu</note>
  <location>
      <lat>49.2833016</lat>
      <lng>16.6961349</lng>
    </location>
  </callbox>
  <callbox vtaid="546423299">
    <region>Jihomoravský</region>
    <district>Brno-venkov</district>
    <municipality>Biskoupky</municipality>
    <part>Biskoupky</part>
    <note>na budově Kulturního domu vedle OÚ</note>
  <location>
      <lat>49.0976891</lat>
      <lng>16.2812856</lng>
    </location>
  </callbox>
  <callbox vtaid="549418718">
    <region>Jihomoravský</region>
    <district>Brno-venkov</district>
    <municipality>Borač</municipality>
    <part>Borač</part>
    <note>zastávka ČSAD</note>
  <location>
      <lat>49.4008152</lat>
      <lng>16.3611167</lng>
    </location>
  </callbox>
  <callbox vtaid="549430005">
    <region>Jihomoravský</region>
    <district>Brno-venkov</district>
    <municipality>Braníškov</municipality>
    <part>Braníškov</part>
    <note>u OÚ</note>
  <location>
      <lat>49.2943695</lat>
      <lng>16.3456616</lng>
    </location>
  </callbox>
  <callbox vtaid="547233228">
    <region>Jihomoravský</region>
    <district>Brno-venkov</district>
    <municipality>Bratčice</municipality>
    <part>Bratčice</part>
    <note>u OÚ</note>
  <location>
      <lat>49.0651465</lat>
      <lng>16.5230839</lng>
    </location>
  </callbox>
  <callbox vtaid="516439493">
    <region>Jihomoravský</region>
    <district>Brno-venkov</district>
    <municipality>Březina (dříve okres Blansko)</municipality>
    <part>Březina</part>
    <note>u OÚ</note>
  <location>
      <lat>49.2820670</lat>
      <lng>16.7550630</lng>
    </location>
  </callbox>
  <callbox vtaid="519424601">
    <region>Jihomoravský</region>
    <district>Brno-venkov</district>
    <municipality>Cvrčovice</municipality>
    <part>Cvrčovice</part>
    <note>před OÚ</note>
  <location>
      <lat>48.9936682</lat>
      <lng>16.5144809</lng>
    </location>
  </callbox>
  <callbox vtaid="566566539">
    <region>Jihomoravský</region>
    <district>Brno-venkov</district>
    <municipality>Černvír</municipality>
    <part>Černvír</part>
    <note>před Kulturním domem</note>
  <location>
      <lat>49.4453126</lat>
      <lng>16.3461858</lng>
    </location>
  </callbox>
  <callbox vtaid="546435833">
    <region>Jihomoravský</region>
    <district>Brno-venkov</district>
    <municipality>Čučice</municipality>
    <part>Čučice</part>
    <note>u OÚ</note>
  <location>
      <lat>49.1370808</lat>
      <lng>16.2785871</lng>
    </location>
  </callbox>
  <callbox vtaid="549440198">
    <region>Jihomoravský</region>
    <district>Brno-venkov</district>
    <municipality>Dolní Loučky</municipality>
    <part>Dolní Loučky</part>
    <note>u obchodu</note>
  <location>
      <lat>49.3609922</lat>
      <lng>16.3587120</lng>
    </location>
  </callbox>
  <callbox vtaid="566566733">
    <region>Jihomoravský</region>
    <district>Brno-venkov</district>
    <municipality>Doubravník</municipality>
    <part>Doubravník</part>
    <note>u pošty</note>
  <location>
      <lat>49.4241076</lat>
      <lng>16.3526995</lng>
    </location>
  </callbox>
  <callbox vtaid="549424490">
    <region>Jihomoravský</region>
    <district>Brno-venkov</district>
    <municipality>Drásov</municipality>
    <part>Drásov</part>
    <note>náves, u kostela ( na růžku )</note>
  <location>
      <lat>49.3318343</lat>
      <lng>16.4779895</lng>
    </location>
  </callbox>
  <callbox vtaid="549410577">
    <region>Jihomoravský</region>
    <district>Brno-venkov</district>
    <municipality>Heroltice</municipality>
    <part>Heroltice</part>
    <note>náves - točna autobusů</note>
  <location>
      <lat>49.3113565</lat>
      <lng>16.4127981</lng>
    </location>
  </callbox>
  <callbox vtaid="547230096">
    <region>Jihomoravský</region>
    <district>Brno-venkov</district>
    <municipality>Holasice</municipality>
    <part>Holasice</part>
    <street>náměstí Rudé armády</street>
    <note>u obchodu</note>
  <location>
      <lat>49.0775061</lat>
      <lng>16.6064983</lng>
    </location>
  </callbox>
  <callbox vtaid="544226020">
    <region>Jihomoravský</region>
    <district>Brno-venkov</district>
    <municipality>Hostěnice</municipality>
    <part>Hostěnice</part>
    <note>u obchodu (u OÚ)</note>
  <location>
      <lat>49.2365414</lat>
      <lng>16.7765522</lng>
    </location>
  </callbox>
  <callbox vtaid="549421401">
    <region>Jihomoravský</region>
    <district>Brno-venkov</district>
    <municipality>Hvozdec</municipality>
    <part>Hvozdec</part>
    <note>budova obecního úřadu, zeď na pravé straně</note>
  <location>
      <lat>49.2469049</lat>
      <lng>16.4251917</lng>
    </location>
  </callbox>
  <callbox vtaid="519427510">
    <region>Jihomoravský</region>
    <district>Brno-venkov</district>
    <municipality>Ivaň</municipality>
    <part>Ivaň</part>
    <note>u prodejny Jednoty</note>
  <location>
      <lat>48.9297112</lat>
      <lng>16.5757427</lng>
    </location>
  </callbox>
  <callbox vtaid="546210038">
    <region>Jihomoravský</region>
    <district>Brno-venkov</district>
    <municipality>Jinačovice</municipality>
    <part>Jinačovice</part>
    <note>před PÚ</note>
  <location>
      <lat>49.2678030</lat>
      <lng>16.5294910</lng>
    </location>
  </callbox>
  <callbox vtaid="549440031">
    <region>Jihomoravský</region>
    <district>Brno-venkov</district>
    <municipality>Kaly</municipality>
    <part>Kaly</part>
    <note>u požární nádrže</note>
  <location>
      <lat>49.3793218</lat>
      <lng>16.3516057</lng>
    </location>
  </callbox>
  <callbox vtaid="566538425">
    <region>Jihomoravský</region>
    <district>Brno-venkov</district>
    <municipality>Katov</municipality>
    <part>Katov</part>
    <note>u prodejny</note>
  <location>
      <lat>49.3326931</lat>
      <lng>16.2787612</lng>
    </location>
  </callbox>
  <callbox vtaid="544228140">
    <region>Jihomoravský</region>
    <district>Brno-venkov</district>
    <municipality>Kobylnice</municipality>
    <part>Kobylnice</part>
    <street>Na Budínku</street>
    <note>u OÚ</note>
  <location>
      <lat>49.1370829</lat>
      <lng>16.7331794</lng>
    </location>
  </callbox>
  <callbox vtaid="546410118">
    <region>Jihomoravský</region>
    <district>Brno-venkov</district>
    <municipality>Kratochvilka</municipality>
    <part>Kratochvilka</part>
    <note>u OÚ</note>
  <location>
      <lat>49.1566526</lat>
      <lng>16.3763568</lng>
    </location>
  </callbox>
  <callbox vtaid="546421833">
    <region>Jihomoravský</region>
    <district>Brno-venkov</district>
    <municipality>Kupařovice</municipality>
    <part>Kupařovice</part>
    <note>Náves u kapličky</note>
  <location>
      <lat>49.0432141</lat>
      <lng>16.4907156</lng>
    </location>
  </callbox>
  <callbox vtaid="549420197">
    <region>Jihomoravský</region>
    <district>Brno-venkov</district>
    <municipality>Lažánky</municipality>
    <part>Lažánky</part>
    <note>náves u OÚ</note>
  <location>
      <lat>49.2789460</lat>
      <lng>16.3880673</lng>
    </location>
  </callbox>
  <callbox vtaid="541232411">
    <region>Jihomoravský</region>
    <district>Brno-venkov</district>
    <municipality>Lelekovice</municipality>
    <part>Lelekovice</part>
    <note>před restaurací Babí lom</note>
  <location>
      <lat>49.2914367</lat>
      <lng>16.5787483</lng>
    </location>
  </callbox>
  <callbox vtaid="546441297">
    <region>Jihomoravský</region>
    <district>Brno-venkov</district>
    <municipality>Litostrov</municipality>
    <part>Litostrov</part>
    <note>zádvěří OÚ</note>
  <location>
      <lat>49.2251457</lat>
      <lng>16.3306954</lng>
    </location>
  </callbox>
  <callbox vtaid="549450102">
    <region>Jihomoravský</region>
    <district>Brno-venkov</district>
    <municipality>Lomnice</municipality>
    <part>Lomnice</part>
    <street>Tišnovská</street>
    <note>před základní školou</note>
  <location>
      <lat>49.4024337</lat>
      <lng>16.4092326</lng>
    </location>
  </callbox>
  <callbox vtaid="546450388">
    <region>Jihomoravský</region>
    <district>Brno-venkov</district>
    <municipality>Lukovany</municipality>
    <part>Lukovany</part>
    <note>střed obce (náměstí), u BUS zastávky</note>
  <location>
      <lat>49.1624727</lat>
      <lng>16.2978538</lng>
    </location>
  </callbox>
  <callbox vtaid="549424495">
    <region>Jihomoravský</region>
    <district>Brno-venkov</district>
    <municipality>Malhostovice</municipality>
    <part>Malhostovice</part>
    <note>směr Čebín u sokolovny</note>
  <location>
      <lat>49.3335986</lat>
      <lng>16.5022218</lng>
    </location>
  </callbox>
  <callbox vtaid="546421500">
    <region>Jihomoravský</region>
    <district>Brno-venkov</district>
    <municipality>Medlov</municipality>
    <part>Medlov</part>
    <note>u OÚ</note>
  <location>
      <lat>49.0350896</lat>
      <lng>16.5223820</lng>
    </location>
  </callbox>
  <callbox vtaid="544224528">
    <region>Jihomoravský</region>
    <district>Brno-venkov</district>
    <municipality>Měnín</municipality>
    <part>Měnín</part>
    <note>u obchodu</note>
  <location>
      <lat>49.0823950</lat>
      <lng>16.6942426</lng>
    </location>
  </callbox>
  <callbox vtaid="546420375">
    <region>Jihomoravský</region>
    <district>Brno-venkov</district>
    <municipality>Moravské Bránice</municipality>
    <part>Moravské Bránice</part>
    <note>u potoka</note>
  <location>
      <lat>49.0832739</lat>
      <lng>16.4362881</lng>
    </location>
  </callbox>
  <callbox vtaid="544248303">
    <region>Jihomoravský</region>
    <district>Brno-venkov</district>
    <municipality>Moutnice</municipality>
    <part>Moutnice</part>
    <note>u OÚ</note>
  <location>
      <lat>49.0492373</lat>
      <lng>16.7374199</lng>
    </location>
  </callbox>
  <callbox vtaid="566566766">
    <region>Jihomoravský</region>
    <district>Brno-venkov</district>
    <municipality>Nedvědice</municipality>
    <part>Nedvědice</part>
    <note>u potravin</note>
  <location>
      <lat>49.4570156</lat>
      <lng>16.3340631</lng>
    </location>
  </callbox>
  <callbox vtaid="546411188">
    <region>Jihomoravský</region>
    <district>Brno-venkov</district>
    <municipality>Neslovice</municipality>
    <part>Neslovice</part>
    <street>Slunečná</street>
    <note>náves</note>
  <location>
      <lat>49.1456368</lat>
      <lng>16.3861414</lng>
    </location>
  </callbox>
  <callbox vtaid="566538411">
    <region>Jihomoravský</region>
    <district>Brno-venkov</district>
    <municipality>Níhov</municipality>
    <part>Níhov</part>
    <note>u zastávky</note>
  <location>
      <lat>49.3416915</lat>
      <lng>16.2575455</lng>
    </location>
  </callbox>
  <callbox vtaid="546435182">
    <region>Jihomoravský</region>
    <district>Brno-venkov</district>
    <municipality>Nová Ves</municipality>
    <part>Nová Ves</part>
    <note>u obchodu</note>
  <location>
      <lat>49.1081122</lat>
      <lng>16.3108434</lng>
    </location>
  </callbox>
  <callbox vtaid="546421401">
    <region>Jihomoravský</region>
    <district>Brno-venkov</district>
    <municipality>Odrovice</municipality>
    <part>Odrovice</part>
    <note>u bývalé prodejny JEDNOTA</note>
  <location>
      <lat>49.0108071</lat>
      <lng>16.5090187</lng>
    </location>
  </callbox>
  <callbox vtaid="549450103">
    <region>Jihomoravský</region>
    <district>Brno-venkov</district>
    <municipality>Ochoz u Tišnova</municipality>
    <part>Ochoz u Tišnova</part>
    <note>u OÚ</note>
  <location>
      <lat>49.4255930</lat>
      <lng>16.3942379</lng>
    </location>
  </callbox>
  <callbox vtaid="546411189">
    <region>Jihomoravský</region>
    <district>Brno-venkov</district>
    <municipality>Omice</municipality>
    <part>Omice</part>
    <street>Brněnská</street>
    <note>u obchodu</note>
  <location>
      <lat>49.1720535</lat>
      <lng>16.4554300</lng>
    </location>
  </callbox>
  <callbox vtaid="549450225">
    <region>Jihomoravský</region>
    <district>Brno-venkov</district>
    <municipality>Osiky</municipality>
    <part>Osiky</part>
    <note>u obecního úřadu</note>
  <location>
      <lat>49.4561942</lat>
      <lng>16.4215876</lng>
    </location>
  </callbox>
  <callbox vtaid="546427201">
    <region>Jihomoravský</region>
    <district>Brno-venkov</district>
    <municipality>Ostrovačice</municipality>
    <part>Ostrovačice</part>
    <street>náměstí Viléma Mrštíka</street>
    <note>u OÚ</note>
  <location>
      <lat>49.2108729</lat>
      <lng>16.4090509</lng>
    </location>
  </callbox>
  <callbox vtaid="519427781">
    <region>Jihomoravský</region>
