<?xml version="1.0" encoding="UTF-8" standalone="no"?>
<callboxes xmlns:xsi="http://www.w3.org/2001/XMLSchema-instance" xsi:noNamespaceSchemaLocation="callBoxesWithGeolocation.xsd">
  <callbox vtaid="387228010">
    <region>Jihoèeskı</region>
    <district>Èeské Budìjovice</district>
    <municipality>Adamov</municipality>
    <part>Adamov</part>
    <street>Dìlnická</street>
    <note>prodejna smíšené zboí</note>
  <location>
      <lat>49.0005966</lat>
      <lng>14.5403543</lng>
    </location>
  </callbox>
  <callbox vtaid="385737109">
    <region>Jihoèeskı</region>
    <district>Èeské Budìjovice</district>
    <municipality>Beèice</municipality>
    <part>Beèice</part>
    <note>náves u kaplièky</note>
  <location>
      <lat>49.2156838</lat>
      <lng>14.5012177</lng>
    </location>
  </callbox>
  <callbox vtaid="387225134">
    <region>Jihoèeskı</region>
    <district>Èeské Budìjovice</district>
    <municipality>Borek</municipality>
    <part>Borek</part>
    <street>Praská</street>
    <note>u obecního úøadu</note>
  <location>
      <lat>49.0208158</lat>
      <lng>14.4988017</lng>
    </location>
  </callbox>
  <callbox vtaid="387250256">
    <region>Jihoèeskı</region>
    <district>Èeské Budìjovice</district>
    <municipality>Boršov nad Vltavou</municipality>
    <part>Boršov nad Vltavou</part>
    <note>náves, reklamní zeï</note>
  <location>
      <lat>48.9217820</lat>
      <lng>14.4339921</lng>
    </location>
  </callbox>
  <callbox vtaid="387986212">
    <region>Jihoèeskı</region>
    <district>Èeské Budìjovice</district>
    <municipality>Bošilec</municipality>
    <part>Bošilec</part>
    <note>u poární zbrojnice</note>
  <location>
      <lat>49.1493184</lat>
      <lng>14.6462192</lng>
    </location>
  </callbox>
  <callbox vtaid="385513970">
    <region>Jihoèeskı</region>
    <district>Èeské Budìjovice</district>
    <municipality>Branišov</municipality>
    <part>Branišov</part>
    <note>náves</note>
  <location>
      <lat>48.9787068</lat>
      <lng>14.3956911</lng>
    </location>
  </callbox>
  <callbox vtaid="387982198">
    <region>Jihoèeskı</region>
    <district>Èeské Budìjovice</district>
    <municipality>Èakov</municipality>
    <part>Èakov</part>
    <note>u obecního úøadu</note>
  <location>
      <lat>48.9805592</lat>
      <lng>14.3076726</lng>
    </location>
  </callbox>
  <callbox vtaid="387983042">
    <region>Jihoèeskı</region>
    <district>Èeské Budìjovice</district>
    <municipality>Èejkovice</municipality>
    <part>Èejkovice</part>
    <note>náves</note>
  <location>
      <lat>49.0143360</lat>
      <lng>14.3829084</lng>
    </location>
  </callbox>
  <callbox vtaid="386321503">
    <region>Jihoèeskı</region>
    <district>Èeské Budìjovice</district>
    <municipality>Èíkrajice</municipality>
    <part>Èíkrajice</part>
    <note>u poární zbrojnice</note>
  <location>
      <lat>48.8064921</lat>
      <lng>14.6361257</lng>
    </location>
  </callbox>
  <callbox vtaid="387965021">
    <region>Jihoèeskı</region>
    <district>Èeské Budìjovice</district>
    <municipality>Dasnı</municipality>
    <part>Dasnı</part>
    <note>náves, u zastávky ÈSAD</note>
  <location>
      <lat>49.0192365</lat>
      <lng>14.4074118</lng>
    </location>
  </callbox>
  <callbox vtaid="387999166">
    <region>Jihoèeskı</region>
    <district>Èeské Budìjovice</district>
    <municipality>Dívèice</municipality>
    <part>Dívèice</part>
    <note>u vlakového nádraí</note>
  <location>
      <lat>49.1086334</lat>
      <lng>14.3092993</lng>
    </location>
  </callbox>
  <callbox vtaid="385737111">
    <region>Jihoèeskı</region>
    <district>Èeské Budìjovice</district>
    <municipality>Dobšice</municipality>
    <part>Dobšice</part>
    <note>náves, u obecního úøadu</note>
  <location>
      <lat>49.2159025</lat>
      <lng>14.4837854</lng>
    </location>
  </callbox>
  <callbox vtaid="385726100">
    <region>Jihoèeskı</region>
    <district>Èeské Budìjovice</district>
    <municipality>Dolní Bukovsko</municipality>
    <part>Dolní Bukovsko</part>
    <street>nám. Jiráskovo</street>
    <note>u obecního úøadu</note>
  <location>
      <lat>49.1709320</lat>
      <lng>14.5806814</lng>
    </location>
  </callbox>
  <callbox vtaid="387240141">
    <region>Jihoèeskı</region>
    <district>Èeské Budìjovice</district>
    <municipality>Doubravice</municipality>
    <part>Doubravice</part>
    <note>náves, u obchodu</note>
  <location>
      <lat>48.9357986</lat>
      <lng>14.5107223</lng>
    </location>
  </callbox>
  <callbox vtaid="387988548">
    <region>Jihoèeskı</region>
    <district>Èeské Budìjovice</district>
    <municipality>Doudleby</municipality>
    <part>Straòany</part>
    <note>u hospody</note>
  <location>
      <lat>48.8935305</lat>
      <lng>14.5014867</lng>
    </location>
  </callbox>
  <callbox vtaid="387997400">
    <region>Jihoèeskı</region>
    <district>Èeské Budìjovice</district>
    <municipality>Drahotìšice</municipality>
    <part>Drahotìšice</part>
    <note>u obecního úøadu, náves</note>
  <location>
      <lat>49.1243373</lat>
      <lng>14.5465826</lng>
    </location>
  </callbox>
  <callbox vtaid="382588027">
    <region>Jihoèeskı</region>
    <district>Èeské Budìjovice</district>
    <municipality>Draíè</municipality>
    <part>Draíè</part>
    <note>na prodejnì náves</note>
  <location>
      <lat>49.3058738</lat>
      <lng>14.3838230</lng>
    </location>
  </callbox>
  <callbox vtaid="387991119">
    <region>Jihoèeskı</region>
    <district>Èeské Budìjovice</district>
    <municipality>Døíteò</municipality>
    <part>Døíteò</part>
    <note>náves</note>
  <location>
      <lat>49.1428038</lat>
      <lng>14.3459615</lng>
    </location>
  </callbox>
  <callbox vtaid="387228009">
    <region>Jihoèeskı</region>
    <district>Èeské Budìjovice</district>
    <municipality>Dubièné</municipality>
    <part>Dubièné</part>
    <note>náves</note>
  <location>
      <lat>48.9810742</lat>
      <lng>14.5387634</lng>
    </location>
  </callbox>
  <callbox vtaid="387992021">
    <region>Jihoèeskı</region>
    <district>Èeské Budìjovice</district>
    <municipality>Dubné</municipality>
    <part>Dubné</part>
    <note>náves, u pošty</note>
  <location>
      <lat>48.9761946</lat>
      <lng>14.3603784</lng>
    </location>
  </callbox>
  <callbox vtaid="387986829">
    <region>Jihoèeskı</region>
    <district>Èeské Budìjovice</district>
    <municipality>Dynín</municipality>
    <part>Dynín</part>
    <note>u obchodu</note>
  <location>
      <lat>49.1372035</lat>
      <lng>14.6311964</lng>
    </location>
  </callbox>
  <callbox vtaid="387992192">
    <region>Jihoèeskı</region>
    <district>Èeské Budìjovice</district>
    <municipality>Habøí</municipality>
    <part>Habøí</part>
    <note>náves,u obecního úøadu</note>
  <location>
      <lat>48.9481478</lat>
      <lng>14.3348470</lng>
    </location>
  </callbox>
  <callbox vtaid="385726370">
    <region>Jihoèeskı</region>
    <district>Èeské Budìjovice</district>
    <municipality>Hartmanice</municipality>
    <part>Hartmanice</part>
    <note>u obecního úøadu,náves</note>
  <location>
      <lat>49.2079486</lat>
      <lng>14.5651157</lng>
    </location>
  </callbox>
  <callbox vtaid="387988596">
    <region>Jihoèeskı</region>
    <district>Èeské Budìjovice</district>
    <municipality>Heømaò</municipality>
    <part>Heømaò</part>
    <note>u obchodu,u obecního úøadu</note>
  <location>
      <lat>48.9113595</lat>
      <lng>14.5036611</lng>
    </location>
  </callbox>
  <callbox vtaid="387983179">
    <region>Jihoèeskı</region>
    <district>Èeské Budìjovice</district>
    <municipality>Hlavatce</municipality>
    <part>Hlavatce</part>
    <note>náves, ID ROP = 3929233</note>
  <location>
      <lat>49.0673054</lat>
      <lng>14.2631794</lng>
    </location>
  </callbox>
  <callbox vtaid="387228015">
    <region>Jihoèeskı</region>
    <district>Èeské Budìjovice</district>
    <municipality>Hlincová Hora</municipality>
    <part>Hlincová Hora</part>
    <note>náves, u hlavní silnice</note>
  <location>
      <lat>48.9836250</lat>
      <lng>14.5644601</lng>
    </location>
  </callbox>
  <callbox vtaid="387250660">
    <region>Jihoèeskı</region>
    <district>Èeské Budìjovice</district>
    <municipality>Homole</municipality>
    <part>Nové Homole</part>
    <note>náves, u zastávky ÈSAD</note>
  <location>
      <lat>48.9388995</lat>
      <lng>14.4294720</lng>
    </location>
  </callbox>
  <callbox vtaid="385737112">
    <region>Jihoèeskı</region>
    <district>Èeské Budìjovice</district>
    <municipality>Horní Knìeklady</municipality>
    <part>Horní Knìeklady</part>
    <note>u obecního úøadu , náves</note>
  <location>
      <lat>49.1937336</lat>
      <lng>14.4813894</lng>
    </location>
  </callbox>
  <callbox vtaid="386327109">
    <region>Jihoèeskı</region>
    <district>Èeské Budìjovice</district>
    <municipality>Horní Stropnice</municipality>
    <part>Horní Stropnice</part>
    <note>autobusové nádraí  419524</note>
  <location>
      <lat>48.7612467</lat>
      <lng>14.7350143</lng>
    </location>
  </callbox>
  <callbox vtaid="387221981">
    <region>Jihoèeskı</region>
    <district>Èeské Budìjovice</district>
    <municipality>Hosín</municipality>
    <part>Hosín</part>
    <note>náves</note>
  <location>
      <lat>49.0373025</lat>
      <lng>14.4759240</lng>
    </location>
  </callbox>
  <callbox vtaid="385731521">
    <region>Jihoèeskı</region>
    <district>Èeské Budìjovice</district>
    <municipality>Hosty</municipality>
    <part>Hosty</part>
    <note>u obchodu</note>
  <location>
      <lat>49.2602957</lat>
      <lng>14.3932591</lng>
    </location>
  </callbox>
  <callbox vtaid="386362713">
    <region>Jihoèeskı</region>
    <district>Èeské Budìjovice</district>
    <municipality>Hranice</municipality>
    <part>Hranice</part>
    <note>Hranice u Novıch Hradù, u zastávky ÈSAD</note>
  <location>
      <lat>48.8384199</lat>
      <lng>14.8682920</lng>
    </location>
  </callbox>
  <callbox vtaid="387220245">
    <region>Jihoèeskı</region>
    <district>Èeské Budìjovice</district>
    <municipality>Hrdìjovice</municipality>
    <part>Hrdìjovice</part>
    <street>Tìšínská</street>
    <note>u køiovatky</note>
  <location>
      <lat>49.0227188</lat>
      <lng>14.4832745</lng>
    </location>
  </callbox>
  <callbox vtaid="387228014">
    <region>Jihoèeskı</region>
    <district>Èeské Budìjovice</district>
    <municipality>Hùry</municipality>
    <part>Hùry</part>
    <street>Adamovská</street>
    <note>u zastávky ÈSAD, náves</note>
  <location>
      <lat>49.0082735</lat>
      <lng>14.5400609</lng>
    </location>
  </callbox>
  <callbox vtaid="387997322">
    <region>Jihoèeskı</region>
    <district>Èeské Budìjovice</district>
    <municipality>Chotıèany</municipality>
    <part>Chotıèany</part>
    <note> u pošty</note>
  <location>
      <lat>49.0672935</lat>
      <lng>14.5205906</lng>
    </location>
  </callbox>
  <callbox vtaid="385727120">
    <region>Jihoèeskı</region>
    <district>Èeské Budìjovice</district>
    <municipality>Chrášany</municipality>
    <part>Chrášany</part>
    <note>náves</note>
  <location>
      <lat>49.2959866</lat>
      <lng>14.3875206</lng>
    </location>
  </callbox>
  <callbox vtaid="387982162">
    <region>Jihoèeskı</region>
    <district>Èeské Budìjovice</district>
    <municipality>Jankov</municipality>
    <part>Jankov</part>
    <note>náves - u obecního úøadu</note>
  <location>
      <lat>48.9664442</lat>
      <lng>14.2978862</lng>
    </location>
  </callbox>
  <callbox vtaid="386325041">
    <region>Jihoèeskı</region>
    <district>Èeské Budìjovice</district>
    <municipality>Jílovice</municipality>
    <part>Šalmanovice</part>
    <note>náves, u zastávky ÈSAD</note>
  <location>
      <lat>48.8894872</lat>
      <lng>14.7267992</lng>
    </location>
  </callbox>
  <callbox vtaid="387228018">
    <region>Jihoèeskı</region>
    <district>Èeské Budìjovice</district>
    <municipality>Jivno</municipality>
    <part>Jivno</part>
    <note>Pøed obecním úøadem - stojan</note>
  <location>
      <lat>48.9955198</lat>
      <lng>14.5692211</lng>
    </location>
  </callbox>
  <callbox vtaid="386323169">
    <region>Jihoèeskı</region>
    <district>Èeské Budìjovice</district>
    <municipality>Kamenná</municipality>
    <part>Kamenná</part>
    <note>u obecního úøadu</note>
  <location>
      <lat>48.7797823</lat>
      <lng>14.6710822</lng>
    </location>
  </callbox>
  <callbox vtaid="387996915">
    <region>Jihoèeskı</region>
    <district>Èeské Budìjovice</district>
    <municipality>Komaøice</municipality>
    <part>Komaøice</part>
    <note>u obecního úøadu</note>
  <location>
      <lat>48.8784488</lat>
      <lng>14.5456629</lng>
    </location>
  </callbox>
  <callbox vtaid="387222489">
    <region>Jihoèeskı</region>
    <district>Èeské Budìjovice</district>
    <municipality>Kvítkovice</municipality>
    <part>Kvítkovice</part>
    <note>Vedle autobusové zastávky</note>
  <location>
      <lat>48.9574064</lat>
      <lng>14.3311596</lng>
    </location>
  </callbox>
  <callbox vtaid="387984828">
    <region>Jihoèeskı</region>
    <district>Èeské Budìjovice</district>
    <municipality>Libín</municipality>
    <part>Libín</part>
    <note>náves, u obecního úøadu</note>
  <location>
      <lat>48.9696270</lat>
      <lng>14.6836062</lng>
    </location>
  </callbox>
  <callbox vtaid="387228016">
    <region>Jihoèeskı</region>
    <district>Èeské Budìjovice</district>
    <municipality>Libníè</municipality>
    <part>Libníè</part>
    <note>náves</note>
  <location>
      <lat>49.0196690</lat>
      <lng>14.5436307</lng>
    </location>
  </callbox>
  <callbox vtaid="387992112">
    <region>Jihoèeskı</region>
    <district>Èeské Budìjovice</district>
    <municipality>Lipí</municipality>
    <part>Lipí</part>
    <note>u bytovek</note>
  <location>
      <lat>48.9494813</lat>
      <lng>14.3521393</lng>
    </location>
  </callbox>
  <callbox vtaid="387962117">
    <region>Jihoèeskı</region>
    <district>Èeské Budìjovice</district>
    <municipality>Loèenice</municipality>
    <part>Loèenice</part>
    <note>náves</note>
  <location>
      <lat>48.8242041</lat>
      <lng>14.5275087</lng>
    </location>
  </callbox>
  <callbox vtaid="387997178">
    <region>Jihoèeskı</region>
    <district>Èeské Budìjovice</district>
    <municipality>Mazelov</municipality>
    <part>Mazelov</part>
    <note> u obchodu</note>
  <location>
      <lat>49.1029530</lat>
      <lng>14.6177857</lng>
    </location>
  </callbox>
  <callbox vtaid="387981629">
    <region>Jihoèeskı</region>
    <district>Èeské Budìjovice</district>
    <municipality>Mladošovice</municipality>
    <part>Mladošovice</part>
    <note>u obecního úøadu</note>
  <location>
      <lat>48.9404689</lat>
      <lng>14.6991499</lng>
    </location>
  </callbox>
  <callbox vtaid="387985637">
    <region>Jihoèeskı</region>
    <district>Èeské Budìjovice</district>
    <municipality>Mydlovary</municipality>
    <part>Mydlovary</part>
    <note>náves u obecního úøadu</note>
  <location>
      <lat>49.0911327</lat>
      <lng>14.3543495</lng>
    </location>
  </callbox>
  <callbox vtaid="387991308">
    <region>Jihoèeskı</region>
    <district>Èeské Budìjovice</district>
    <municipality>Nákøí</municipality>
    <part>Nákøí</part>
    <note>náves, u zastávky ÈSAD</note>
  <location>
      <lat>49.1188683</lat>
      <lng>14.3293430</lng>
    </location>
  </callbox>
  <callbox vtaid="387240124">
    <region>Jihoèeskı</region>
    <district>Èeské Budìjovice</district>
    <municipality>Nedabyle</municipality>
    <part>Nedabyle</part>
    <note>u obecního úøadu</note>
  <location>
      <lat>48.9284088</lat>
      <lng>14.5149371</lng>
    </location>
  </callbox>
  <callbox vtaid="387986463">
    <region>Jihoèeskı</region>
    <district>Èeské Budìjovice</district>
    <municipality>Neplachov</municipality>
    <part>Neplachov</part>
    <note>u obchodu</note>
  <location>
      <lat>49.1303009</lat>
      <lng>14.6009914</lng>
    </location>
  </callbox>
  <callbox vtaid="387240812">
    <region>Jihoèeskı</region>
    <district>Èeské Budìjovice</district>
    <municipality>Nová Ves</municipality>
    <part>Nová Ves</part>
    <note>u vlakového nádraí</note>
  <location>
      <lat>48.9206089</lat>
      <lng>14.5286405</lng>
    </location>
  </callbox>
  <callbox vtaid="386324715">
    <region>Jihoèeskı</region>
    <district>Èeské Budìjovice</district>
    <municipality>Olešnice</municipality>
    <part>Olešnice</part>
    <note>u obchodu</note>
  <location>
      <lat>48.8412300</lat>
      <lng>14.7048311</lng>
    </location>
  </callbox>
  <callbox vtaid="387985639">
    <region>Jihoèeskı</region>
    <district>Èeské Budìjovice</district>
    <municipality>Olešník</municipality>
    <part>Olešník</part>
    <note>náves, u OÚ</note>
  <location>
      <lat>49.1071351</lat>
      <lng>14.3638193</lng>
    </location>
  </callbox>
  <callbox vtaid="386321490">
    <region>Jihoèeskı</region>
    <district>Èeské Budìjovice</district>
    <municipality>Ostrolovskı Újezd</municipality>
    <part>Ostrolovskı Újezd</part>
    <note>náves, u obecního úøadu</note>
  <location>
      <lat>48.8806182</lat>
      <lng>14.6006067</lng>
    </location>
  </callbox>
  <callbox vtaid="386325119">
    <region>Jihoèeskı</region>
    <district>Èeské Budìjovice</district>
    <municipality>Petøíkov</municipality>
    <part>Petøíkov</part>
    <note>náves, u obchodu è.p. 81</note>
  <location>
      <lat>48.8469723</lat>
      <lng>14.7546077</lng>
    </location>
  </callbox>
  <callbox vtaid="387983916">
    <region>Jihoèeskı</region>
    <district>Èeské Budìjovice</district>
    <municipality>Pištín</municipality>
    <part>Pištín</part>
    <note>náves</note>
  <location>
      <lat>49.0458745</lat>
      <lng>14.3351588</lng>
    </location>
  </callbox>
  <callbox vtaid="387203493">
    <region>Jihoèeskı</region>
    <district>Èeské Budìjovice</district>
    <municipality>Planá</municipality>
    <part>Planá</part>
    <note>parkovištì u vojenského útvaru</note>
  <location>
      <lat>48.9436747</lat>
      <lng>14.4527679</lng>
    </location>
  </callbox>
  <callbox vtaid="387988966">
    <region>Jihoèeskı</region>
    <district>Èeské Budìjovice</district>
    <municipality>Plav</municipality>
    <part>Plav</part>
    <note>u obecního úøadu è.p. 57</note>
  <location>
      <lat>48.9014349</lat>
      <lng>14.4878743</lng>
    </location>
  </callbox>
  <callbox vtaid="387983048">
    <region>Jihoèeskı</region>
    <district>Èeské Budìjovice</district>
    <municipality>Radošovice</municipality>
    <part>Radošovice</part>
    <note>náves</note>
  <location>
      <lat>49.0195992</lat>
      <lng>14.2729263</lng>
    </location>
  </callbox>
  <callbox vtaid="386460070">
    <region>Jihoèeskı</region>
    <district>Èeské Budìjovice</district>
    <municipality>Roudné</municipality>
    <part>Roudné</part>
    <note>na zdi obecního úøadu,vpravo od hlavního vchodu</note>
  <location>
      <lat>48.9348846</lat>
      <lng>14.4874388</lng>
    </location>
  </callbox>
  <callbox vtaid="387987307">
    <region>Jihoèeskı</region>
    <district>Èeské Budìjovice</district>
    <municipality>Øímov</municipality>
    <part>Øímov</part>
    <note>u obecního úøadu, u zastávky ÈSAD</note>
  <location>
      <lat>48.8556189</lat>
      <lng>14.4868399</lng>
    </location>
  </callbox>
  <callbox vtaid="387983915">
    <region>Jihoèeskı</region>
    <district>Èeské Budìjovice</district>
    <municipality>Sedlec</municipality>
    <part>Sedlec</part>
    <note>náves</note>
  <location>
      <lat>49.0728307</lat>
      <lng>14.2865058</lng>
    </location>
  </callbox>
  <callbox vtaid="386323117">
    <region>Jihoèeskı</region>
    <district>Èeské Budìjovice</district>
    <municipality>Slavèe</municipality>
    <part>Slavèe</part>
    <note>náves, u zastávky</note>
  <location>
      <lat>48.7978486</lat>
      <lng>14.6149649</lng>
    </location>
  </callbox>
  <callbox vtaid="387200179">
    <region>Jihoèeskı</region>
    <district>Èeské Budìjovice</district>
    <municipality>Srubec</municipality>
    <part>Srubec</part>
    <note>prodejna</note>
  <location>
      <lat>48.9480609</lat>
      <lng>14.5413068</lng>
    </location>
  </callbox>
  <callbox vtaid="387240393">
    <region>Jihoèeskı</region>
    <district>Èeské Budìjovice</district>
    <municipality>Staré Hodìjovice</municipality>
    <part>Staré Hodìjovice</part>
    <street>Na Návsi</street>
    <note>u prodejny</note>
  <location>
      <lat>48.9449587</lat>
      <lng>14.5212654</lng>
    </location>
  </callbox>
  <callbox vtaid="387996060">
    <region>Jihoèeskı</region>
    <district>Èeské Budìjovice</district>
    <municipality>Strákovice</municipality>
    <part>Strákovice</part>
    <note>náves, u obecního úøadu</note>
  <location>
      <lat>48.8995827</lat>
      <lng>14.5693864</lng>
    </location>
  </callbox>
  <callbox vtaid="387982012">
    <region>Jihoèeskı</region>
    <district>Èeské Budìjovice</district>
    <municipality>Strıèice</municipality>
    <part>Strıèice</part>
  <location>
      <lat>49.0123066</lat>
      <lng>14.2660818</lng>
    </location>
  </callbox>
  <callbox vtaid="387988546">
    <region>Jihoèeskı</region>
    <district>Èeské Budìjovice</district>
    <municipality>Støíov</municipality>
    <part>Støíov</part>
    <note>náves, u obecního úøadu</note>
  <location>
      <lat>48.8904026</lat>
      <lng>14.5276768</lng>
    </location>
  </callbox>
  <callbox vtaid="387962234">
    <region>Jihoèeskı</region>
    <district>Èeské Budìjovice</district>
    <municipality>Svatı Jan nad Malší</municipality>
    <part>Svatı Jan nad Malší</part>
    <note>náves,u obchodu</note>
  <location>
      <lat>48.8240389</lat>
      <lng>14.5085213</lng>
    </location>
  </callbox>
  <callbox vtaid="387997172">
    <region>Jihoèeskı</region>
    <district>Èeské Budìjovice</district>
    <municipality>Ševìtín</municipality>
    <part>Ševìtín</part>
    <street>Zahradní</street>
  <location>
      <lat>49.0984339</lat>
      <lng>14.5666585</lng>
    </location>
  </callbox>
  <callbox vtaid="387984905">
    <region>Jihoèeskı</region>
    <district>Èeské Budìjovice</district>
    <municipality>Štìpánovice</municipality>
    <part>Štìpánovice</part>
    <street>Tøeboòská</street>
    <note>náves, u hlavní silnice, u motorestu</note>
  <location>
      <lat>48.9989280</lat>
      <lng>14.6630750</lng>
    </location>
  </callbox>
  <callbox vtaid="385734350">
    <region>Jihoèeskı</region>
    <district>Èeské Budìjovice</district>
    <municipality>Temelín</municipality>
    <part>Temelín</part>
    <note>smìr Protivín -  u rybníka</note>
  <location>
      <lat>49.1928402</lat>
      <lng>14.3487467</lng>
    </location>
  </callbox>
  <callbox vtaid="387225019">
    <region>Jihoèeskı</region>
    <district>Èeské Budìjovice</district>
    <municipality>Úsilné</municipality>
    <part>Úsilné</part>
    <note>náves</note>
  <location>
      <lat>49.0133904</lat>
      <lng>14.5072639</lng>
    </location>
  </callbox>
  <callbox vtaid="387250530">
    <region>Jihoèeskı</region>
    <district>Èeské Budìjovice</district>
    <municipality>Vèelná</municipality>
    <part>Vèelná</part>
    <street>Nádraní</street>
    <note>u restaurace u Kaštanu</note>
  <location>
      <lat>48.9241107</lat>
      <lng>14.4515174</lng>
    </location>
  </callbox>
  <callbox vtaid="386467143">
    <region>Jihoèeskı</region>
    <district>Èeské Budìjovice</district>
    <municipality>Vidov</municipality>
    <part>Vidov</part>
    <note>náves</note>
  <location>
      <lat>48.9267484</lat>
      <lng>14.4946490</lng>
    </location>
  </callbox>
  <callbox vtaid="387997423">
    <region>Jihoèeskı</region>
    <district>Èeské Budìjovice</district>
    <municipality>Vitín</municipality>
    <part>Vitín</part>
    <note>pøed obecním úøadem</note>
  <location>
      <lat>49.0894907</lat>
      <lng>14.5458741</lng>
    </location>
  </callbox>
  <callbox vtaid="387250224">
    <region>Jihoèeskı</region>
    <district>Èeské Budìjovice</district>
    <municipality>Vrábèe</municipality>
    <part>Vrábèe</part>
    <note>u vlakové zastávky</note>
  <location>
      <lat>48.9173530</lat>
      <lng>14.3759141</lng>
    </location>
  </callbox>
  <callbox vtaid="387311981">
    <region>Jihoèeskı</region>
    <district>Èeské Budìjovice</district>
    <municipality>Vráto</municipality>
    <part>Vráto</part>
    <note>u prodejny</note>
  <location>
      <lat>48.9879541</lat>
      <lng>14.5269175</lng>
    </location>
  </callbox>
  <callbox vtaid="385724081">
    <region>Jihoèeskı</region>
    <district>Èeské Budìjovice</district>
    <municipality>Všemyslice</municipality>
    <part>Neznašov</part>
    <note>náves</note>
  <location>
      <lat>49.2169636</lat>
      <lng>14.3578899</lng>
    </location>
  </callbox>
  <callbox vtaid="387982144">
    <region>Jihoèeskı</region>
    <district>Èeské Budìjovice</district>
    <municipality>Záboøí</municipality>
    <part>Záboøí</part>
    <note>náves</note>
  <location>
      <lat>48.9899537</lat>
      <lng>14.2671696</lng>
    </location>
  </callbox>
  <callbox vtaid="387985025">
    <region>Jihoèeskı</region>
    <district>Èeské Budìjovice</district>
    <municipality>Zahájí</municipality>
    <part>Zahájí</part>
    <note>náves, u obecního úøadu</note>
  <location>
      <lat>49.0895871</lat>
      <lng>14.3708052</lng>
    </location>
  </callbox>
  <callbox vtaid="387994649">
    <region>Jihoèeskı</region>
    <district>Èeské Budìjovice</district>
    <municipality>Zvíkov</municipality>
    <part>Zvíkov</part>
    <note>náves, u zastávky ÈSAD</note>
  <location>
      <lat>48.9808458</lat>
      <lng>14.6169220</lng>
    </location>
  </callbox>
  <callbox vtaid="387992198">
    <region>Jihoèeskı</region>
    <district>Èeské Budìjovice</district>
    <municipality>abovøesky</municipality>
    <part>abovøesky</part>
    <note>náves</note>
  <location>
      <lat>49.0028077</lat>
      <lng>14.3348570</lng>
    </location>
  </callbox>
  <callbox vtaid="386362481">
    <region>Jihoèeskı</region>
    <district>Èeské Budìjovice</district>
    <municipality>ár</municipality>
    <part>ár</part>
    <note>náves</note>
  <location>
      <lat>48.8068708</lat>
      <lng>14.7081871</lng>
    </location>
  </callbox>
  <callbox vtaid="385737047">
    <region>Jihoèeskı</region>
    <district>Èeské Budìjovice</district>
    <municipality>imutice</municipality>
    <part>imutice</part>
    <note>u základní školy</note>
  <location>
      <lat>49.2037198</lat>
      <lng>14.5104272</lng>
    </location>
  </callbox>
  <callbox vtaid="380322260">
    <region>Jihoèeskı</region>
    <district>Èeskı Krumlov</district>
    <municipality>Benešov nad Èernou</municipality>
    <part>Benešov nad Èernou</part>
    <note>námìstí</note>
  <location>
      <lat>48.7294068</lat>
      <lng>14.6273712</lng>
    </location>
  </callbox>
  <callbox vtaid="380323160">
    <region>Jihoèeskı</region>
    <district>Èeskı Krumlov</district>
    <municipality>Besednice</municipality>
    <part>Besednice</part>
    <street>Hlinice</street>
    <note>u nákupního støediska Jednota, náves</note>
  <location>
      <lat>48.7869453</lat>
      <lng>14.5559354</lng>
    </location>
  </callbox>
  <callbox vtaid="380737335">
    <region>Jihoèeskı</region>
    <district>Èeskı Krumlov</district>
    <municipality>Bohdalovice</municipality>
    <part>Slavkov</part>
    <note>náves, u kostela</note>
  <location>
      <lat>48.7428402</lat>
      <lng>14.2867639</lng>
    </location>
  </callbox>
  <callbox vtaid="380737234">
    <region>Jihoèeskı</region>
    <district>Èeskı Krumlov</district>
    <municipality>Boletice</municipality>
    <part>Boletice</part>
    <note>Polná na Šumavì, na budovì obchodu </note>
  <location>
      <lat>48.8248749</lat>
      <lng>14.2173353</lng>
    </location>
  </callbox>
  <callbox vtaid="380745103">
    <region>Jihoèeskı</region>
    <district>Èeskı Krumlov</district>
    <municipality>Brloh</municipality>
    <part>Brloh</part>
    <note>náves</note>
  <location>
      <lat>48.9298799</lat>
      <lng>14.2185674</lng>
    </location>
  </callbox>
  <callbox vtaid="380327095">
    <region>Jihoèeskı</region>
    <district>Èeskı Krumlov</district>
    <municipality>Bujanov</municipality>
    <part>Bujanov</part>
    <note>u obecního úøadu</note>
  <location>
      <lat>48.7023287</lat>
      <lng>14.4296472</lng>
    </location>
  </callbox>
  <callbox vtaid="380744220">
    <region>Jihoèeskı</region>
    <district>Èeskı Krumlov</district>
    <municipality>Èerná v Pošumaví</municipality>
    <part>Èerná v Pošumaví</part>
    <note>u pošty</note>
  <location>
      <lat>48.7379719</lat>
      <lng>14.1105374</lng>
    </location>
  </callbox>
  <callbox vtaid="380324280">
    <region>Jihoèeskı</region>
    <district>Èeskı Krumlov</district>
    <municipality>Dolní Dvoøištì</municipality>
    <part>Dolní Dvoøištì</part>
    <note>námìstí</note>
  <location>
      <lat>48.6564211</lat>
      <lng>14.4522095</lng>
    </location>
  </callbox>
  <callbox vtaid="380743792">
    <region>Jihoèeskı</region>
    <district>Èeskı Krumlov</district>
    <municipality>Dolní Tøebonín</municipality>
    <part>Dolní Tøebonín</part>
    <note>u obecního úøadu, u pošty</note>
  <location>
      <lat>48.8554257</lat>
      <lng>14.4097050</lng>
    </location>
  </callbox>
  <callbox vtaid="380735298">
    <region>Jihoèeskı</region>
    <district>Èeskı Krumlov</district>
    <municipality>Frymburk</municipality>
    <part>Frymburk</part>
    <note>u lékárny I</note>
  <location>
      <lat>48.6609442</lat>
      <lng>14.1656315</lng>
    </location>
  </callbox>
  <callbox vtaid="380741834">
    <region>Jihoèeskı</region>
    <district>Èeskı Krumlov</district>
    <municipality>Holubov</municipality>
    <part>Holubov</part>
    <note>náves, u obchodu</note>
  <location>
      <lat>48.8899963</lat>
      <lng>14.3210884</lng>
    </location>
  </callbox>
  <callbox vtaid="380747001">
    <region>Jihoèeskı</region>
    <district>Èeskı Krumlov</district>
    <municipality>Horní Dvoøištì</municipality>
    <part>Horní Dvoøištì</part>
    <note>náves, u pošty</note>
  <location>
      <lat>48.6037831</lat>
      <lng>14.4057218</lng>
    </location>
  </callbox>
  <callbox vtaid="380737196">
    <region>Jihoèeskı</region>
    <district>Èeskı Krumlov</district>
    <municipality>Hoøice na Šumavì</municipality>
    <part>Hoøice na Šumavì</part>
    <note>náves, u kašny</note>
  <location>
      <lat>48.7659176</lat>
      <lng>14.1784223</lng>
    </location>
  </callbox>
  <callbox vtaid="380739224">
    <region>Jihoèeskı</region>
    <district>Èeskı Krumlov</district>
    <municipality>Chvalšiny</municipality>
    <part>Chvalšiny</part>
    <note>námìstí</note>
  <location>
      <lat>48.8540194</lat>
      <lng>14.2111388</lng>
    </location>
  </callbox>
  <callbox vtaid="380731399">
    <region>Jihoèeskı</region>
    <district>Èeskı Krumlov</district>
    <municipality>Kájov</municipality>
    <part>Kájov</part>
    <note>náves- u pošty</note>
  <location>
      <lat>48.8108214</lat>
      <lng>14.2585919</lng>
    </location>
  </callbox>
  <callbox vtaid="380736049">
    <region>Jihoèeskı</region>
    <district>Èeskı Krumlov</district>
    <municipality>Lipno nad Vltavou</municipality>
    <part>Lipno nad Vltavou</part>
    <note>MARINA LIPNO, u trafostanice, u budovy D12</note>
  <location>
      <lat>48.6393267</lat>
      <lng>14.2293199</lng>
    </location>
  </callbox>
  <callbox vtaid="380748129">
    <region>Jihoèeskı</region>
    <district>Èeskı Krumlov</district>
    <municipality>Louèovice</municipality>
    <part>Louèovice</part>
    <note>sídlištì, u obchodu</note>
  <location>
      <lat>48.6201925</lat>
      <lng>14.2574650</lng>
    </location>
  </callbox>
  <callbox vtaid="380325160">
    <region>Jihoèeskı</region>
    <district>Èeskı Krumlov</district>
    <municipality>Malonty</municipality>
    <part>Malonty</part>
    <note>u pošty</note>
  <location>
      <lat>48.6861119</lat>
      <lng>14.5767752</lng>
    </location>
  </callbox>
  <callbox vtaid="380749726">
    <region>Jihoèeskı</region>
    <district>Èeskı Krumlov</district>
    <municipality>Malšín</municipality>
    <part>Malšín</part>
    <note>náves</note>
  <location>
      <lat>48.6780257</lat>
      <lng>14.2870352</lng>
    </location>
  </callbox>
  <callbox vtaid="380711148">
    <region>Jihoèeskı</region>
    <district>Èeskı Krumlov</district>
    <municipality>Mirkovice</municipality>
    <part>Mirkovice</part>
    <note>náves</note>
  <location>
      <lat>48.8109762</lat>
      <lng>14.3912520</lng>
    </location>
  </callbox>
  <callbox vtaid="380743892">
    <region>Jihoèeskı</region>
    <district>Èeskı Krumlov</district>
    <municipality>Mojné</municipality>
    <part>Mojné</part>
    <note>u  obecnímu úøadu</note>
  <location>
      <lat>48.8347183</lat>
      <lng>14.4072731</lng>
    </location>
  </callbox>
  <callbox vtaid="380321256">
    <region>Jihoèeskı</region>
    <district>Èeskı Krumlov</district>
    <municipality>Netøebice</municipality>
    <part>Netøebice</part>
    <note>u hlavní silnice, u obchodu</note>
  <location>
      <lat>48.7907868</lat>
      <lng>14.4555654</lng>
    </location>
  </callbox>
  <callbox vtaid="380745100">
    <region>Jihoèeskı</region>
    <district>Èeskı Krumlov</district>
    <municipality>Nová Ves</municipality>
    <part>Nová Ves</part>
    <note>náves u zastávky ÈSAD</note>
  <location>
      <lat>48.9483176</lat>
      <lng>14.2471596</lng>
    </location>
  </callbox>
  <callbox vtaid="380311237">
    <region>Jihoèeskı</region>
    <district>Èeskı Krumlov</district>
    <municipality>Omlenice</municipality>
    <part>Omlenièka</part>
    <note>náves</note>
  <location>
      <lat>48.7258182</lat>
      <lng>14.4436320</lng>
    </location>
  </callbox>
  <callbox vtaid="380326007">
    <region>Jihoèeskı</region>
    <district>Èeskı Krumlov</district>
    <municipality>Pohorská Ves</municipality>
    <part>Pohorská Ves</part>
    <note>u bytovky, u hlavní silnice</note>
  <location>
      <lat>48.6699246</lat>
      <lng>14.6476480</lng>
    </location>
  </callbox>
  <callbox vtaid="380735408">
    <region>Jihoèeskı</region>
    <district>Èeskı Krumlov</district>
    <municipality>Pøední Vıtoò</municipality>
    <part>Pøední Vıtoò</part>
    <note>náves, u obchodu</note>
  <location>
      <lat>48.6311443</lat>
      <lng>14.1644896</lng>
    </location>
  </callbox>
  <callbox vtaid="380734001">
    <region>Jihoèeskı</region>
    <district>Èeskı Krumlov</district>
    <municipality>Pøídolí</municipality>
    <part>Pøídolí</part>
    <note>u obchodu</note>
  <location>
      <lat>48.7818115</lat>
      <lng>14.3521904</lng>
    </location>
  </callbox>
  <callbox vtaid="380726468">
    <region>Jihoèeskı</region>
    <district>Èeskı Krumlov</district>
    <municipality>Pøíseèná</municipality>
    <part>Pøíseèná</part>
    <note>náves, u obchodu</note>
  <location>
      <lat>48.8330732</lat>
      <lng>14.3454072</lng>
    </location>
  </callbox>
  <callbox vtaid="380749848">
    <region>Jihoèeskı</region>
    <district>Èeskı Krumlov</district>
    <municipality>Romberk nad Vltavou</municipality>
    <part>Romberk nad Vltavou</part>
    <note>námìstí, budova Obecního úøadu</note>
  <location>
      <lat>48.6542529</lat>
      <lng>14.3651592</lng>
    </location>
  </callbox>
  <callbox vtaid="380327165">
    <region>Jihoèeskı</region>
    <district>Èeskı Krumlov</district>
    <municipality>Romitál na Šumavì</municipality>
    <part>Romitál na Šumavì</part>
    <note>náves</note>
  <location>
      <lat>48.7013993</lat>
      <lng>14.3882775</lng>
    </location>
  </callbox>
  <callbox vtaid="380323360">
    <region>Jihoèeskı</region>
    <district>Èeskı Krumlov</district>
    <municipality>Sobìnov</municipality>
    <part>Sobìnov</part>
    <note>náves</note>
  <location>
      <lat>48.7627078</lat>
      <lng>14.5457267</lng>
    </location>
  </callbox>
  <callbox vtaid="380743337">
    <region>Jihoèeskı</region>
    <district>Èeskı Krumlov</district>
    <municipality>Srnín</municipality>
    <part>Srnín</part>
    <note>náves</note>
  <location>
      <lat>48.8450149</lat>
      <lng>14.3437032</lng>
    </location>
  </callbox>
  <callbox vtaid="380321156">
    <region>Jihoèeskı</region>
    <district>Èeskı Krumlov</district>
    <municipality>Støíte</municipality>
    <part>Kaplice-nádraí</part>
    <note>u vlakového nádraí ÈD</note>
  <location>
      <lat>48.7756384</lat>
      <lng>14.4344421</lng>
    </location>
  </callbox>
  <callbox vtaid="380737297">
    <region>Jihoèeskı</region>
    <district>Èeskı Krumlov</district>
    <municipality>Svìtlík</municipality>
    <part>Svìtlík</part>
    <note>náves</note>
  <location>
      <lat>48.7316608</lat>
      <lng>14.2109702</lng>
    </location>
  </callbox>
  <callbox vtaid="380743789">
    <region>Jihoèeskı</region>
    <district>Èeskı Krumlov</district>
    <municipality>Zlatá Koruna</municipality>
    <part>Rájov</part>
    <note>náves</note>
  <location>
      <lat>48.8547732</lat>
      <lng>14.3695377</lng>
    </location>
  </callbox>
  <callbox vtaid="380332480">
    <region>Jihoèeskı</region>
    <district>Èeskı Krumlov</district>
    <municipality>Zubèice</municipality>
    <part>Zubèice</part>
    <note>náves, u OÚ</note>
  <location>
      <lat>48.7940367</lat>
      <lng>14.4071805</lng>
    </location>
  </callbox>
  <callbox vtaid="384497021">
    <region>Jihoèeskı</region>
    <district>Jindøichùv Hradec</district>
    <municipality>Báòovice</municipality>
    <part>Báòovice</part>
    <note>u OÚ</note>
  <location>
      <lat>49.0117545</lat>
      <lng>15.4902400</lng>
    </location>
  </callbox>
  <callbox vtaid="384396480">
    <region>Jihoèeskı</region>
    <district>Jindøichùv Hradec</district>
    <municipality>Bednárec</municipality>
    <part>Bednárec</part>
    <note>u hl.silnice</note>
  <location>
      <lat>49.1952391</lat>
      <lng>15.0931964</lng>
    </location>
  </callbox>
  <callbox vtaid="384397752">
    <region>Jihoèeskı</region>
    <district>Jindøichùv Hradec</district>
    <municipality>Bednáreèek</municipality>
    <part>Bednáreèek</part>
    <note>u obecního úøadu</note>
  <location>
      <lat>49.2100790</lat>
      <lng>15.1439343</lng>
    </location>
  </callbox>
  <callbox vtaid="384397191">
    <region>Jihoèeskı</region>
    <district>Jindøichùv Hradec</district>
    <municipality>Blaejov</municipality>
    <part>Blaejov</part>
    <note>u obchodu</note>
  <location>
      <lat>49.1421951</lat>
      <lng>15.0964532</lng>
    </location>
  </callbox>
  <callbox vtaid="384397557">
    <region>Jihoèeskı</region>
    <district>Jindøichùv Hradec</district>
    <municipality>Boøetín</municipality>
    <part>Boøetín</part>
    <note>levı bok èekárny ÈSAD</note>
  <location>
      <lat>49.1892212</lat>
      <lng>15.2118410</lng>
    </location>
  </callbox>
  <callbox vtaid="384384490">
    <region>Jihoèeskı</region>
    <district>Jindøichùv Hradec</district>
    <municipality>Bøezina</municipality>
    <part>Bøezina</part>
    <note>pøed OÚ</note>
  <location>
      <lat>49.1353677</lat>
      <lng>14.9328267</lng>
    </location>
  </callbox>
  <callbox vtaid="384495321">
    <region>Jihoèeskı</region>
    <district>Jindøichùv Hradec</district>
    <municipality>Budeè</municipality>
    <part>Budeè</part>
    <note>u obecního úøadu</note>
  <location>
      <lat>49.0871772</lat>
      <lng>15.5898734</lng>
    </location>
  </callbox>
  <callbox vtaid="384495124">
    <region>Jihoèeskı</region>
    <district>Jindøichùv Hradec</district>
    <municipality>Budíškovice</municipality>
    <part>Budíškovice</part>
    <note>obecní úøad</note>
  <location>
      <lat>49.0762484</lat>
      <lng>15.5309057</lng>
    </location>
  </callbox>
  <callbox vtaid="384781691">
    <region>Jihoèeskı</region>
    <district>Jindøichùv Hradec</district>
    <municipality>Cep</municipality>
    <part>Cep</part>
    <note>náves</note>
  <location>
      <lat>48.9195024</lat>
      <lng>14.8073572</lng>
    </location>
  </callbox>
  <callbox vtaid="384493396">
    <region>Jihoèeskı</region>
    <district>Jindøichùv Hradec</district>
    <municipality>Cizkrajov</municipality>
    <part>Cizkrajov</part>
    <note>u zastávky ÈAD</note>
  <location>
      <lat>49.0305495</lat>
      <lng>15.3896544</lng>
    </location>
  </callbox>
  <callbox vtaid="567318717">
    <region>Jihoèeskı</region>
    <district>Jindøichùv Hradec</district>
    <municipality>Èervenı Hrádek</municipality>
    <part>Èervenı Hrádek</part>
    <note>obec zastávka ÈSAD</note>
  <location>
      <lat>49.1228809</lat>
      <lng>15.5389273</lng>
    </location>
  </callbox>
  <callbox vtaid="384496184">
    <region>Jihoèeskı</region>
    <district>Jindøichùv Hradec</district>
    <municipality>Èeskı Rudolec</municipality>
    <part>Èeskı Rudolec</part>
    <note>u prodejny Jednoty</note>
  <location>
      <lat>49.0683536</lat>
      <lng>15.3243716</lng>
    </location>
  </callbox>
  <callbox vtaid="384388800">
    <region>Jihoèeskı</region>
    <district>Jindøichùv Hradec</district>
    <municipality>Èímìø</municipality>
    <part>Èímìø</part>
    <note>u prodejny potravin</note>
  <location>
      <lat>49.0606055</lat>
      <lng>15.0736718</lng>
    </location>
  </callbox>
  <callbox vtaid="384399018">
    <region>Jihoèeskı</region>
    <district>Jindøichùv Hradec</district>
    <municipality>Èlunek</municipality>
    <part>Lomy</part>
    <note>u prodejny</note>
  <location>
      <lat>49.1114461</lat>
      <lng>15.1267602</lng>
    </location>
  </callbox>
  <callbox vtaid="384498134">
    <region>Jihoèeskı</region>
    <district>Jindøichùv Hradec</district>
    <municipality>Dešná</municipality>
    <part>Dešná</part>
    <note>za Jednotou</note>
  <location>
      <lat>48.9575748</lat>
      <lng>15.5428256</lng>
    </location>
  </callbox>
  <callbox vtaid="384384298">
    <region>Jihoèeskı</region>
    <district>Jindøichùv Hradec</district>
    <municipality>Deštná</municipality>
    <part>Deštná</part>
    <street>nám. Míru</street>
    <note>námìstí</note>
  <location>
      <lat>49.2653457</lat>
      <lng>14.9238152</lng>
    </location>
  </callbox>
  <callbox vtaid="384388090">
    <region>Jihoèeskı</region>
    <district>Jindøichùv Hradec</district>
    <municipality>Dolní Pìna</municipality>
    <part>Dolní Pìna</part>
    <note>pøed OÚ</note>
  <location>
      <lat>49.1105037</lat>
      <lng>15.0220528</lng>
    </location>
  </callbox>
  <callbox vtaid="384721884">
    <region>Jihoèeskı</region>
    <district>Jindøichùv Hradec</district>
    <municipality>Domanín</municipality>
    <part>Domanín</part>
    <note>u rybníèku</note>
  <location>
      <lat>48.9716827</lat>
      <lng>14.7397695</lng>
    </location>
  </callbox>
  <callbox vtaid="384382197">
    <region>Jihoèeskı</region>
    <district>Jindøichùv Hradec</district>
    <municipality>Doòov</municipality>
    <part>Doòov</part>
    <note>hlavní vchod do OÚ</note>
  <location>
      <lat>49.2130803</lat>
      <lng>14.7761070</lng>
    </location>
  </callbox>
  <callbox vtaid="384721903">
    <region>Jihoèeskı</region>
    <district>Jindøichùv Hradec</district>
    <municipality>Dunajovice</municipality>
    <part>Dunajovice</part>
    <note>náves</note>
  <location>
      <lat>49.0350491</lat>
      <lng>14.6952483</lng>
    </location>
  </callbox>
  <callbox vtaid="384784000">
    <region>Jihoèeskı</region>
    <district>Jindøichùv Hradec</district>
    <municipality>Dvory nad Lunicí</municipality>
    <part>Dvory nad Lunicí</part>
    <note>u OÚ</note>
  <location>
      <lat>48.8527220</lat>
      <lng>14.9005289</lng>
    </location>
  </callbox>
  <callbox vtaid="384792275">
    <region>Jihoèeskı</region>
    <district>Jindøichùv Hradec</district>
    <municipality>Frahel</municipality>
    <part>Frahel</part>
    <note>u obecního úøadu</note>
  <location>
      <lat>49.1171321</lat>
      <lng>14.7319286</lng>
    </location>
  </callbox>
  <callbox vtaid="384785096">
    <region>Jihoèeskı</region>
    <district>Jindøichùv Hradec</district>
    <municipality>Halámky</municipality>
    <part>Halámky</part>
    <note>u prodejny</note>
  <location>
      <lat>48.8531398</lat>
      <lng>14.9151232</lng>
    </location>
  </callbox>
  <callbox vtaid="384797597">
    <region>Jihoèeskı</region>
    <district>Jindøichùv Hradec</district>
    <municipality>Hamr</municipality>
    <part>Hamr</part>
    <note>náves</note>
  <location>
      <lat>48.9494057</lat>
      <lng>14.9134290</lng>
    </location>
  </callbox>
  <callbox vtaid="384490210">
    <region>Jihoèeskı</region>
    <district>Jindøichùv Hradec</district>
    <municipality>Heømaneè</municipality>
    <part>Heømaneè</part>
    <note>Obecní úøad</note>
  <location>
      <lat>49.1295018</lat>
      <lng>15.2853600</lng>
    </location>
  </callbox>
  <callbox vtaid="384490780">
    <region>Jihoèeskı</region>
    <district>Jindøichùv Hradec</district>
    <municipality>Horní Meziøíèko</municipality>
    <part>Horní Meziøíèko</part>
    <note>u obecního úøadu</note>
  <location>
      <lat>49.1565837</lat>
      <lng>15.2445088</lng>
    </location>
  </callbox>
  <callbox vtaid="384490122">
    <region>Jihoèeskı</region>
    <district>Jindøichùv Hradec</district>
    <municipality>Horní Nìmèice</municipality>
    <part>Horní Nìmèice</part>
    <note>zastávka ÈSAD</note>
  <location>
      <lat>49.1577998</lat>
      <lng>15.2796800</lng>
    </location>
  </callbox>
  <callbox vtaid="384388128">
    <region>Jihoèeskı</region>
    <district>Jindøichùv Hradec</district>
    <municipality>Horní Pìna</municipality>
    <part>Horní Pìna</part>
    <note>u zastávky ÈAD</note>
  <location>
      <lat>49.1044153</lat>
      <lng>15.0422967</lng>
    </location>
  </callbox>
  <callbox vtaid="384391041">
    <region>Jihoèeskı</region>
    <district>Jindøichùv Hradec</district>
    <municipality>Horní Radouò</municipality>
    <part>Horní Radouò</part>
    <note>u obecního úøadu</note>
  <location>
      <lat>49.2570796</lat>
      <lng>15.0057284</lng>
    </location>
  </callbox>
  <callbox vtaid="384495118">
    <region>Jihoèeskı</region>
    <district>Jindøichùv Hradec</district>
    <municipality>Horní Slatina</municipality>
    <part>Horní Slatina</part>
    <note>náves u rybníka</note>
  <location>
      <lat>49.0904774</lat>
      <lng>15.5687337</lng>
    </location>
  </callbox>
  <callbox vtaid="384397497">
    <region>Jihoèeskı</region>
    <district>Jindøichùv Hradec</district>
    <municipality>Hospøíz</municipality>
    <part>Hospøíz</part>
    <note>náves u OÚ</note>
  <location>
      <lat>49.1285629</lat>
      <lng>15.0855268</lng>
    </location>
  </callbox>
  <callbox vtaid="384782199">
    <region>Jihoèeskı</region>
    <district>Jindøichùv Hradec</district>
    <municipality>Hrachovištì</municipality>
    <part>Hrachovištì</part>
    <note>u OÚ</note>
  <location>
      <lat>48.9293708</lat>
      <lng>14.7711102</lng>
    </location>
  </callbox>
  <callbox vtaid="384420393">
    <region>Jihoèeskı</region>
    <district>Jindøichùv Hradec</district>
    <municipality>Høíšice</municipality>
    <part>Høíšice</part>
    <note>obec</note>
  <location>
      <lat>49.1033312</lat>
      <lng>15.4954376</lng>
    </location>
  </callbox>
  <callbox vtaid="384396397">
    <region>Jihoèeskı</region>
    <district>Jindøichùv Hradec</district>
    <municipality>Jarošov nad Neárkou</municipality>
    <part>Jarošov nad Neárkou</part>
    <note>u pošty</note>
  <location>
      <lat>49.1898947</lat>
      <lng>15.0673395</lng>
    </location>
  </callbox>
  <callbox vtaid="384490741">
    <region>Jihoèeskı</region>
    <district>Jindøichùv Hradec</district>
    <municipality>Jilem</municipality>
    <part>Jilem</part>
    <note>u obecního úøadu</note>
  <location>
      <lat>49.1766702</lat>
      <lng>15.2688243</lng>
    </location>
  </callbox>
  <callbox vtaid="384388024">
    <region>Jihoèeskı</region>
    <district>Jindøichùv Hradec</district>
    <municipality>Kaèlehy</municipality>
    <part>Kaèlehy</part>
    <note> u kostela</note>
  <location>
      <lat>49.1088634</lat>
      <lng>15.0770664</lng>
    </location>
  </callbox>
  <callbox vtaid="384382798">
    <region>Jihoèeskı</region>
    <district>Jindøichùv Hradec</district>
    <municipality>Kamennı Malíkov</municipality>
    <part>Kamennı Malíkov</part>
    <note>Obecní úøad - zeï</note>
  <location>
      <lat>49.2118983</lat>
      <lng>15.1222694</lng>
    </location>
  </callbox>
  <callbox vtaid="384792626">
    <region>Jihoèeskı</region>
    <district>Jindøichùv Hradec</district>
    <municipality>Klec</municipality>
    <part>Klec</part>
    <note>u obecního úøadu</note>
  <location>
      <lat>49.0992912</lat>
      <lng>14.7483957</lng>
    </location>
  </callbox>
  <callbox vtaid="384391191">
    <region>Jihoèeskı</region>
    <district>Jindøichùv Hradec</district>
    <municipality>Kostelní Radouò</municipality>
    <part>Kostelní Radouò</part>
    <note>u prodejny</note>
  <location>
      <lat>49.2254167</lat>
      <lng>15.0087294</lng>
    </location>
  </callbox>
  <callbox vtaid="384420394">
    <region>Jihoèeskı</region>
    <district>Jindøichùv Hradec</district>
    <municipality>Kostelní Vydøí</municipality>
    <part>Kostelní Vydøí</part>
    <note>u autobusové zastávky</note>
  <location>
      <lat>49.1060631</lat>
      <lng>15.4216580</lng>
    </location>
  </callbox>
  <callbox vtaid="384399138">
    <region>Jihoèeskı</region>
    <district>Jindøichùv Hradec</district>
    <municipality>Kunak</municipality>
    <part>Kunak</part>
    <street>námìstí Komenského</street>
    <note>námìstí</note>
  <location>
      <lat>49.1216940</lat>
      <lng>15.1911313</lng>
    </location>
  </callbox>
  <callbox vtaid="384380178">
    <region>Jihoèeskı</region>
    <district>Jindøichùv Hradec</district>
    <municipality>Lásenice</municipality>
    <part>Lásenice</part>
    <note>u prodejny</note>
  <location>
      <lat>49.0742913</lat>
      <lng>14.9701827</lng>
    </location>
  </callbox>
  <callbox vtaid="384385327">
    <region>Jihoèeskı</region>
    <district>Jindøichùv Hradec</district>
    <municipality>Lodhéøov</municipality>
    <part>Lodhéøov</part>
    <note>u kostela</note>
  <location>
      <lat>49.2150890</lat>
      <lng>14.9599453</lng>
    </location>
  </callbox>
  <callbox vtaid="384792489">
    <region>Jihoèeskı</region>
    <district>Jindøichùv Hradec</district>
    <municipality>Lomnice nad Lunicí</municipality>
    <part>Lomnice nad Lunicí</part>
    <street>nám. 5. kvìtna</street>
    <note>u ZŠ</note>
  <location>
      <lat>49.0816932</lat>
      <lng>14.7183139</lng>
    </location>
  </callbox>
  <callbox vtaid="384792500">
    <region>Jihoèeskı</region>
    <district>Jindøichùv Hradec</district>
    <municipality>Lunice</municipality>
    <part>Lunice</part>
    <note>u prodejny</note>
  <location>
      <lat>49.0629827</lat>
      <lng>14.7561838</lng>
    </location>
  </callbox>
  <callbox vtaid="384787179">
    <region>Jihoèeskı</region>
    <district>Jindøichùv Hradec</district>
    <municipality>Majdalena</municipality>
    <part>Majdalena</part>
    <note>U sloupárny</note>
  <location>
      <lat>48.9607089</lat>
      <lng>14.8613098</lng>
    </location>
  </callbox>
  <callbox vtaid="384392069">
    <region>Jihoèeskı</region>
    <district>Jindøichùv Hradec</district>
    <municipality>Nová Olešná</municipality>
    <part>Nová Olešná</part>
    <note>u zastávky autobusu</note>
  <location>
      <lat>49.1756135</lat>
      <lng>15.1609531</lng>
    </location>
  </callbox>
  <callbox vtaid="384795932">
    <region>Jihoèeskı</region>
    <district>Jindøichùv Hradec</district>
    <municipality>Nová Ves nad Lunicí</municipality>
    <part>Nová Ves nad Lunicí</part>
    <note>u obecního úøadu</note>
  <location>
      <lat>48.8106388</lat>
      <lng>14.9255754</lng>
    </location>
  </callbox>
  <callbox vtaid="384791288">
    <region>Jihoèeskı</region>
    <district>Jindøichùv Hradec</district>
    <municipality>Novosedly nad Neárkou</municipality>
    <part>Novosedly nad Neárkou</part>
    <note>náves</note>
  <location>
      <lat>49.0810025</lat>
      <lng>14.8221596</lng>
    </location>
  </callbox>
  <callbox vtaid="384391042">
    <region>Jihoèeskı</region>
    <district>Jindøichùv Hradec</district>
    <municipality>Okrouhlá Radouò</municipality>
    <part>Okrouhlá Radouò</part>
    <note>u prodejny</note>
  <location>
      <lat>49.2397257</lat>
      <lng>15.0170723</lng>
    </location>
  </callbox>
  <callbox vtaid="384420396">
    <region>Jihoèeskı</region>
    <district>Jindøichùv Hradec</district>
    <municipality>Peè</municipality>
    <part>Peè</part>
    <note>u obchodu</note>
  <location>
      <lat>49.0578307</lat>
      <lng>15.3923747</lng>
    </location>
  </callbox>
  <callbox vtaid="384492008">
    <region>Jihoèeskı</region>
    <district>Jindøichùv Hradec</district>
    <municipality>Píseèné</municipality>
    <part>Píseèné</part>
    <note>náves</note>
  <location>
      <lat>48.9649434</lat>
      <lng>15.4623883</lng>
    </location>
  </callbox>
  <callbox vtaid="384390877">
    <region>Jihoèeskı</region>
    <district>Jindøichùv Hradec</district>
    <municipality>Plavsko</municipality>
    <part>Plavsko</part>
    <note>u Obecního úøadu</note>
  <location>
      <lat>49.0845952</lat>
      <lng>14.9040239</lng>
    </location>
  </callbox>
  <callbox vtaid="384383349">
    <region>Jihoèeskı</region>
    <district>Jindøichùv Hradec</district>
    <municipality>Pleše</municipality>
    <part>Pleše</part>
    <note>náves u rybníka</note>
  <location>
      <lat>49.1955289</lat>
      <lng>14.8213650</lng>
    </location>
  </callbox>
  <callbox vtaid="384383346">
    <region>Jihoèeskı</region>
    <district>Jindøichùv Hradec</district>
    <municipality>Pluhùv ïár</municipality>
    <part>Klenov</part>
    <note>zastávka ÈSAD</note>
  <location>
      <lat>49.2238950</lat>
      <lng>14.8927030</lng>
    </location>
  </callbox>
  <callbox vtaid="384390646">
    <region>Jihoèeskı</region>
    <district>Jindøichùv Hradec</district>
    <municipality>Polštì</municipality>
    <part>Polštì</part>
    <note>Obecní úøad</note>
  <location>
      <lat>49.1063862</lat>
      <lng>14.9278539</lng>
    </location>
  </callbox>
  <callbox vtaid="384792327">
    <region>Jihoèeskı</region>
    <district>Jindøichùv Hradec</district>
    <municipality>Ponìdra</municipality>
    <part>Ponìdra</part>
    <note>náves</note>
  <location>
      <lat>49.1159749</lat>
      <lng>14.7019660</lng>
    </location>
  </callbox>
  <callbox vtaid="384792060">
    <region>Jihoèeskı</region>
    <district>Jindøichùv Hradec</district>
    <municipality>Ponìdráka</municipality>
    <part>Ponìdráka</part>
    <note>Obecní úøad na návsi</note>
  <location>
      <lat>49.1365335</lat>
      <lng>14.7033194</lng>
    </location>
  </callbox>
  <callbox vtaid="384397589">
    <region>Jihoèeskı</region>
    <district>Jindøichùv Hradec</district>
    <municipality>Popelín</municipality>
    <part>Popelín</part>
    <note>u prodejny Jednoty</note>
  <location>
      <lat>49.2135827</lat>
      <lng>15.1839189</lng>
    </location>
  </callbox>
  <callbox vtaid="384389488">
    <region>Jihoèeskı</region>
    <district>Jindøichùv Hradec</district>
    <municipality>Pøíbraz</municipality>
    <part>Pøíbraz</part>
    <note> proti hospodì</note>
  <location>
      <lat>49.0513692</lat>
      <lng>14.9376075</lng>
    </location>
  </callbox>
  <callbox vtaid="384786116">
    <region>Jihoèeskı</region>
    <district>Jindøichùv Hradec</district>
    <municipality>Rapšach</municipality>
    <part>Rapšach</part>
    <note>za kostelem u OÚ</note>
  <location>
      <lat>48.8792143</lat>
      <lng>14.9329122</lng>
    </location>
  </callbox>
  <callbox vtaid="384390924">
    <region>Jihoèeskı</region>
    <district>Jindøichùv Hradec</district>
    <municipality>Ratiboø</municipality>
    <part>Ratiboø</part>
    <note>náves</note>
  <location>
      <lat>49.1435191</lat>
      <lng>14.9150232</lng>
    </location>
  </callbox>
  <callbox vtaid="384396481">
    <region>Jihoèeskı</region>
    <district>Jindøichùv Hradec</district>
    <municipality>Rodvínov</municipality>
    <part>Rodvínov</part>
    <note>náves u kaplièky</note>
  <location>
      <lat>49.1709956</lat>
      <lng>15.0569899</lng>
    </location>
  </callbox>
  <callbox vtaid="384390959">
    <region>Jihoèeskı</region>
    <district>Jindøichùv Hradec</district>
    <municipality>Roseè</municipality>
    <part>Roseè</part>
    <note>obec</note>
  <location>
      <lat>49.1277616</lat>
      <lng>14.9107449</lng>
    </location>
  </callbox>
  <callbox vtaid="384792628">
    <region>Jihoèeskı</region>
    <district>Jindøichùv Hradec</district>
    <municipality>Smrov</municipality>
    <part>Smrov</part>
    <note>u prodejny a hostin.</note>
  <location>
      <lat>49.0760577</lat>
      <lng>14.6823772</lng>
    </location>
  </callbox>
  <callbox vtaid="384797839">
    <region>Jihoèeskı</region>
    <district>Jindøichùv Hradec</district>
    <municipality>Staòkov</municipality>
    <part>Staòkov</part>
    <note>náves</note>
  <location>
      <lat>48.9795267</lat>
      <lng>14.9526982</lng>
    </location>
  </callbox>
  <callbox vtaid="384497249">
    <region>Jihoèeskı</region>
    <district>Jindøichùv Hradec</district>
    <municipality>Staré Hobzí</municipality>
    <part>Staré Hobzí</part>
    <note>u obchodu</note>
  <location>
      <lat>49.0103985</lat>
      <lng>15.4532083</lng>
    </location>
  </callbox>
  <callbox vtaid="384498571">
    <region>Jihoèeskı</region>
    <district>Jindøichùv Hradec</district>
    <municipality>Staré Mìsto pod Landštejnem</municipality>
    <part>Staré Mìsto pod Landštejnem</part>
    <note>u obecního úøadu</note>
  <location>
      <lat>49.0033501</lat>
      <lng>15.2541294</lng>
    </location>
  </callbox>
  <callbox vtaid="384389180">
    <region>Jihoèeskı</region>
    <district>Jindøichùv Hradec</district>
    <municipality>Strá nad Neárkou</municipality>
    <part>Strá nad Neárkou</part>
    <street>námìstí Emy Destinnové</street>
    <note>u trafiky</note>
  <location>
      <lat>49.0691637</lat>
      <lng>14.9075473</lng>
    </location>
  </callbox>
  <callbox vtaid="384392310">
    <region>Jihoèeskı</region>
    <district>Jindøichùv Hradec</district>
    <municipality>Strmilov</municipality>
    <part>Strmilov</part>
    <street>Námìstí</street>
    <note>u obecního úøadu</note>
  <location>
      <lat>49.1587273</lat>
      <lng>15.2016889</lng>
    </location>
  </callbox>
  <callbox vtaid="384790033">
    <region>Jihoèeskı</region>
    <district>Jindøichùv Hradec</district>
    <municipality>Støíbøec</municipality>
    <part>Støíbøec</part>
    <note> u obec. úøadu</note>
  <location>
      <lat>49.0298887</lat>
      <lng>14.8782510</lng>
    </location>
  </callbox>
  <callbox vtaid="384391629">
    <region>Jihoèeskı</region>
    <district>Jindøichùv Hradec</district>
    <municipality>Støíovice</municipality>
    <part>Støíovice</part>
    <note>u zastávky ÈAD</note>
  <location>
      <lat>49.1399071</lat>
      <lng>15.1568555</lng>
    </location>
  </callbox>
  <callbox vtaid="384384496">
    <region>Jihoèeskı</region>
    <district>Jindøichùv Hradec</district>
    <municipality>Svìtce</municipality>
    <part>Svìtce</part>
    <note>u zast. ÈAD</note>
  <location>
      <lat>49.2705550</lat>
      <lng>14.9414047</lng>
    </location>
  </callbox>
  <callbox vtaid="384495230">
    <region>Jihoèeskı</region>
    <district>Jindøichùv Hradec</district>
    <municipality>Tøebìtice</municipality>
    <part>Tøebìtice</part>
    <note>náves u zastávky</note>
  <location>
      <lat>49.0476409</lat>
      <lng>15.5207203</lng>
    </location>
  </callbox>
  <callbox vtaid="384382195">
    <region>Jihoèeskı</region>
    <district>Jindøichùv Hradec</district>
    <municipality>Újezdec</municipality>
    <part>Újezdec</part>
    <note>OU u hlavního vchodu</note>
  <location>
      <lat>49.2075262</lat>
      <lng>14.7847363</lng>
    </location>
  </callbox>
  <callbox vtaid="384499180">
    <region>Jihoèeskı</region>
    <district>Jindøichùv Hradec</district>
    <municipality>Volfíøov</municipality>
    <part>Brandlín</part>
    <note>aut.zastávka</note>
  <location>
      <lat>49.1068218</lat>
      <lng>15.3702531</lng>
    </location>
  </callbox>
  <callbox vtaid="384380049">
    <region>Jihoèeskı</region>
    <district>Jindøichùv Hradec</district>
    <municipality>Vydøí</municipality>
    <part>Vydøí</part>
    <note>obec</note>
  <location>
      <lat>49.0924301</lat>
      <lng>14.9456276</lng>
    </location>
  </callbox>
  <callbox vtaid="384792145">
    <region>Jihoèeskı</region>
    <district>Jindøichùv Hradec</district>
    <municipality>Záblatí</municipality>
    <part>Záblatí</part>
    <note>u Obecního úøadu na návsi</note>
  <location>
      <lat>49.1071833</lat>
      <lng>14.6861662</lng>
    </location>
  </callbox>
  <callbox vtaid="384383347">
    <region>Jihoèeskı</region>
    <district>Jindøichùv Hradec</district>
    <municipality>Záhoøí</municipality>
    <part>Záhoøí</part>
    <note>u obchodu</note>
  <location>
      <lat>49.2128549</lat>
      <lng>14.7983617</lng>
    </location>
  </callbox>
  <callbox vtaid="384490490">
    <region>Jihoèeskı</region>
    <district>Jindøichùv Hradec</district>
    <municipality>Zahrádky</municipality>
    <part>Zahrádky</part>
    <note>u obecního úøadu</note>
  <location>
      <lat>49.2008109</lat>
      <lng>15.2417158</lng>
    </location>
  </callbox>
  <callbox vtaid="382288200">
    <region>Jihoèeskı</region>
    <district>Písek</district>
    <municipality>Albrechtice nad Vltavou</municipality>
    <part>Albrechtice nad Vltavou</part>
    <note>u pošty a zast. ÈSAD  náves</note>
  <location>
      <lat>49.2532372</lat>
      <lng>14.3028294</lng>
    </location>
  </callbox>
  <callbox vtaid="382585349">
    <region>Jihoèeskı</region>
    <district>Písek</district>
    <municipality>Bernartice</municipality>
    <part>Bernartice</part>
    <street>Tınská</street>
    <note>pøed poštou</note>
  <location>
      <lat>49.3661729</lat>
      <lng>14.3787093</lng>
    </location>
  </callbox>
  <callbox vtaid="382585263">
    <region>Jihoèeskı</region>
    <district>Písek</district>
    <municipality>Borovany</municipality>
    <part>Borovany</part>
    <note>na návsi vedle obchodu náves</note>
  <location>
      <lat>49.3429990</lat>
      <lng>14.3924670</lng>
    </location>
  </callbox>
  <callbox vtaid="382229296">
    <region>Jihoèeskı</region>
    <district>Písek</district>
    <municipality>Boudy</municipality>
    <part>Boudy</part>
    <note>u obchodu náves</note>
  <location>
      <lat>49.4479573</lat>
      <lng>14.0354912</lng>
    </location>
  </callbox>
  <callbox vtaid="382581536">
    <region>Jihoèeskı</region>
    <district>Písek</district>
    <municipality>Boetice</municipality>
    <part>Boetice</part>
    <note>u OÚ,náves</note>
  <location>
      <lat>49.4511303</lat>
      <lng>14.4439006</lng>
    </location>
  </callbox>
  <callbox vtaid="382589127">
    <region>Jihoèeskı</region>
    <district>Písek</district>
    <municipality>Branice</municipality>
    <part>Branice</part>
    <note>u zastávky ÈSAD,náves</note>
  <location>
      <lat>49.4024691</lat>
      <lng>14.3395399</lng>
    </location>
  </callbox>
  <callbox vtaid="382229284">
    <region>Jihoèeskı</region>
    <district>Písek</district>
    <municipality>Cerhonice</municipality>
    <part>Cerhonice</part>
    <note>pøed obecním úøadem náves</note>
  <location>
      <lat>49.4179969</lat>
      <lng>14.0556392</lng>
    </location>
  </callbox>
  <callbox vtaid="382228029">
    <region>Jihoèeskı</region>
    <district>Písek</district>
    <municipality>Èimelice</municipality>
    <part>Èimelice</part>
    <note>u zdr. Støediska sídlištì</note>
  <location>
      <lat>49.4655806</lat>
      <lng>14.0692278</lng>
    </location>
  </callbox>
  <callbox vtaid="382279103">
    <region>Jihoèeskı</region>
    <district>Písek</district>
    <municipality>Èíová</municipality>
    <part>Èíová</part>
    <note>u pošty náves</note>
  <location>
      <lat>49.3567607</lat>
      <lng>14.0930580</lng>
    </location>
  </callbox>
  <callbox vtaid="382262207">
    <region>Jihoèeskı</region>
    <district>Písek</district>
    <municipality>Dobev</municipality>
    <part>Stará Dobev</part>
    <note>pøed obchodem</note>
  <location>
      <lat>49.2952502</lat>
      <lng>14.0484307</lng>
    </location>
  </callbox>
  <callbox vtaid="382284381">
    <region>Jihoèeskı</region>
    <district>Písek</district>
    <municipality>Dolní Novosedly</municipality>
    <part>Dolní Novosedly</part>
    <note>aut. Zastávka</note>
  <location>
      <lat>49.3291251</lat>
      <lng>14.1959929</lng>
    </location>
  </callbox>
  <callbox vtaid="382273114">
    <region>Jihoèeskı</region>
    <district>Písek</district>
    <municipality>Drhovle</municipality>
    <part>Pamìtice</part>
    <note>náves</note>
  <location>
      <lat>49.3338791</lat>
      <lng>14.0422700</lng>
    </location>
  </callbox>
  <callbox vtaid="382261380">
    <region>Jihoèeskı</region>
    <district>Písek</district>
    <municipality>Heømaò</municipality>
    <part>Heømaò</part>
    <note>náves</note>
  <location>
      <lat>49.2324748</lat>
      <lng>14.1354505</lng>
    </location>
  </callbox>
  <callbox vtaid="382274418">
    <region>Jihoèeskı</region>
    <district>Písek</district>
    <municipality>Horosedly</municipality>
    <part>Horosedly</part>
    <note>náves u èp. 49 náves</note>
  <location>
      <lat>49.5127961</lat>
      <lng>14.0540066</lng>
    </location>
  </callbox>
  <callbox vtaid="382594013">
    <region>Jihoèeskı</region>
    <district>Písek</district>
    <municipality>Hrazany</municipality>
    <part>Hrazánky</part>
    <note>náves</note>
  <location>
      <lat>49.5228399</lat>
      <lng>14.3348797</lng>
    </location>
  </callbox>
  <callbox vtaid="382523166">
    <region>Jihoèeskı</region>
    <district>Písek</district>
    <municipality>Hrejkovice</municipality>
    <part>Hrejkovice</part>
    <note>u autobusové zastávky</note>
  <location>
      <lat>49.4743732</lat>
      <lng>14.2908121</lng>
    </location>
  </callbox>
  <callbox vtaid="382591257">
    <region>Jihoèeskı</region>
    <district>Písek</district>
    <municipality>Chyšky</municipality>
    <part>Ratiboø</part>
    <note>náves</note>
  <location>
      <lat>49.5234599</lat>
      <lng>14.4275728</lng>
    </location>
  </callbox>
  <callbox vtaid="382587261">
    <region>Jihoèeskı</region>
    <district>Písek</district>
    <municipality>Jetìtice</municipality>
    <part>Èervená</part>
    <note>Policie rekr.zaø. Vltava,recepce</note>
  <location>
      <lat>49.3859548</lat>
      <lng>14.2926100</lng>
    </location>
  </callbox>
  <callbox vtaid="382262438">
    <region>Jihoèeskı</region>
    <district>Písek</district>
    <municipality>Kestøany</municipality>
    <part>Kestøany</part>
    <note>u hotelu</note>
  <location>
      <lat>49.2690531</lat>
      <lng>14.0725414</lng>
    </location>
  </callbox>
  <callbox vtaid="382286501">
    <region>Jihoèeskı</region>
    <district>Písek</district>
    <municipality>Kluky</municipality>
    <part>Kluky</part>
    <note>pøed obchodem náves</note>
  <location>
      <lat>49.3167847</lat>
      <lng>14.2452878</lng>
    </location>
  </callbox>
  <callbox vtaid="382593126">
    <region>Jihoèeskı</region>
    <district>Písek</district>
    <municipality>Kostelec nad Vltavou</municipality>
    <part>Kostelec nad Vltavou</part>
    <note>u pošty,v budovì obchodu COOP Jednota</note>
  <location>
      <lat>49.4998903</lat>
      <lng>14.2117591</lng>
    </location>
  </callbox>
  <callbox vtaid="382594201">
    <region>Jihoèeskı</region>
    <district>Písek</district>
    <municipality>Kováøov</municipality>
    <part>Kováøov</part>
    <note>u obecního úøadu</note>
  <location>
      <lat>49.5176051</lat>
      <lng>14.2780991</lng>
    </location>
  </callbox>
  <callbox vtaid="382275371">
    <region>Jihoèeskı</region>
    <district>Písek</district>
    <municipality>Kolí</municipality>
    <part>Kolí</part>
    <note>ATC Velkı Vír, horní restaurace, ID ROP 3941173</note>
  <location>
      <lat>49.5157747</lat>
      <lng>14.1466590</lng>
    </location>
  </callbox>
  <callbox vtaid="382275390">
    <region>Jihoèeskı</region>
    <district>Písek</district>
    <municipality>Králova Lhota</municipality>
    <part>Králova Lhota</part>
    <note>u prodejny náves</note>
  <location>
      <lat>49.4957086</lat>
      <lng>14.1105520</lng>
    </location>
  </callbox>
  <callbox vtaid="382585003">
    <region>Jihoèeskı</region>
    <district>Písek</district>
    <municipality>Køenovice</municipality>
    <part>Køenovice</part>
    <note>náves- u kaple  náves</note>
  <location>
      <lat>49.3672960</lat>
      <lng>14.3428955</lng>
    </location>
  </callbox>
  <callbox vtaid="382589105">
    <region>Jihoèeskı</region>
    <district>Písek</district>
    <municipality>Køianov</municipality>
    <part>Køianov</part>
    <note>u hl. vchodu do OÚ</note>
  <location>
      <lat>49.3987395</lat>
      <lng>14.3781372</lng>
    </location>
  </callbox>
  <callbox vtaid="382583743">
    <region>Jihoèeskı</region>
    <district>Písek</district>
    <municipality>Kuèeø</municipality>
    <part>Kuèeø</part>
    <note>u kaple</note>
  <location>
      <lat>49.4342416</lat>
      <lng>14.2456240</lng>
    </location>
  </callbox>
  <callbox vtaid="382274325">
    <region>Jihoèeskı</region>
    <district>Písek</district>
    <municipality>Lety</municipality>
    <part>Lety</part>
    <note>u obchodu s potravinami náves</note>
  <location>
      <lat>49.5169335</lat>
      <lng>14.0877664</lng>
    </location>
  </callbox>
  <callbox vtaid="382229390">
    <region>Jihoèeskı</region>
    <district>Písek</district>
    <municipality>Mirotice</municipality>
    <part>Mirotice</part>
    <note>na budovì mìstského úøadu</note>
  <location>
      <lat>49.4290850</lat>
      <lng>14.0369783</lng>
    </location>
  </callbox>
  <callbox vtaid="382274482">
    <region>Jihoèeskı</region>
    <district>Písek</district>
    <municipality>Mirovice</municipality>
    <part>Mirovice</part>
    <street>Masarykovo námìstí</street>
  <location>
      <lat>49.5154658</lat>
      <lng>14.0365674</lng>
    </location>
  </callbox>
  <callbox vtaid="382274041">
    <region>Jihoèeskı</region>
    <district>Písek</district>
    <municipality>Myslín</municipality>
    <part>Myslín</part>
  <location>
      <lat>49.5320893</lat>
      <lng>14.0273397</lng>
    </location>
  </callbox>
  <callbox vtaid="382275297">
    <region>Jihoèeskı</region>
    <district>Písek</district>
    <municipality>Nevìzice</municipality>
    <part>Nevìzice</part>
    <note>u zastávky ÈAD  náves</note>
  <location>
      <lat>49.4777334</lat>
      <lng>14.1533633</lng>
    </location>
  </callbox>
  <callbox vtaid="382581058">
    <region>Jihoèeskı</region>
    <district>Písek</district>
    <municipality>Okrouhlá</municipality>
    <part>Okrouhlá</part>
    <note>náves</note>
  <location>
      <lat>49.4136319</lat>
      <lng>14.3643120</lng>
    </location>
  </callbox>
  <callbox vtaid="382587488">
    <region>Jihoèeskı</region>
    <district>Písek</district>
    <municipality>Olešná</municipality>
    <part>Olešná</part>
    <note>náves u hotelu Olešná  náves</note>
  <location>
      <lat>49.3461547</lat>
      <lng>14.3104913</lng>
    </location>
  </callbox>
  <callbox vtaid="382275111">
    <region>Jihoèeskı</region>
    <district>Písek</district>
    <municipality>Orlík nad Vltavou</municipality>
    <part>Orlík nad Vltavou</part>
    <note>u pošty</note>
  <location>
      <lat>49.5098791</lat>
      <lng>14.1655127</lng>
    </location>
  </callbox>
  <callbox vtaid="382522148">
    <region>Jihoèeskı</region>
    <district>Písek</district>
    <municipality>Osek</municipality>
    <part>Osek</part>
    <note>u obchodu</note>
  <location>
      <lat>49.3084520</lat>
      <lng>14.1477480</lng>
    </location>
  </callbox>
  <callbox vtaid="382285642">
    <region>Jihoèeskı</region>
    <district>Písek</district>
    <municipality>Oslov</municipality>
    <part>Oslov</part>
    <note>u obec. úøadu a pošty náves</note>
  <location>
      <lat>49.3992647</lat>
      <lng>14.2119592</lng>
    </location>
  </callbox>
  <callbox vtaid="382289254">
    <region>Jihoèeskı</region>
    <district>Písek</district>
    <municipality>Ostrovec</municipality>
    <part>Dolní Ostrovec</part>
    <note>u kaple</note>
  <location>
      <lat>49.4211426</lat>
      <lng>14.1154812</lng>
    </location>
  </callbox>
  <callbox vtaid="382259130">
    <region>Jihoèeskı</region>
    <district>Písek</district>
    <municipality>Paseky</municipality>
    <part>Paseky</part>
    <note>u obchodu</note>
  <location>
      <lat>49.2516400</lat>
      <lng>14.2548205</lng>
    </location>
  </callbox>
  <callbox vtaid="382587502">
    <region>Jihoèeskı</region>
    <district>Písek</district>
    <municipality>Podolí I</municipality>
    <part>Podolí I</part>
    <note>u obchodu Jednota náves</note>
  <location>
      <lat>49.3611645</lat>
      <lng>14.3119234</lng>
    </location>
  </callbox>
  <callbox vtaid="382275253">
    <region>Jihoèeskı</region>
    <district>Písek</district>
    <municipality>Probulov</municipality>
    <part>Probulov</part>
    <note>u prodejny náves</note>
  <location>
      <lat>49.4927952</lat>
      <lng>14.1451344</lng>
    </location>
  </callbox>
  <callbox vtaid="382273200">
    <region>Jihoèeskı</region>
    <district>Písek</district>
    <municipality>Pøedotice</municipality>
    <part>Pøedotice</part>
    <note>u obecního úøadu náves</note>
  <location>
      <lat>49.3649383</lat>
      <lng>14.0534254</lng>
    </location>
  </callbox>
  <callbox vtaid="382584509">
    <region>Jihoèeskı</region>
    <district>Písek</district>
    <municipality>Pøeštìnice</municipality>
    <part>Pøeštìnice</part>
    <note> náves</note>
  <location>
      <lat>49.4796628</lat>
      <lng>14.4203504</lng>
    </location>
  </callbox>
  <callbox vtaid="382261383">
    <region>Jihoèeskı</region>
    <district>Písek</district>
    <municipality>Putim</municipality>
    <part>Putim</part>
    <note>u Obecního úøadu</note>
  <location>
      <lat>49.2645274</lat>
      <lng>14.1190302</lng>
    </location>
  </callbox>
  <callbox vtaid="382228382">
    <region>Jihoèeskı</region>
    <district>Písek</district>
    <municipality>Rakovice</municipality>
    <part>Rakovice</part>
    <note>náves u obchodu </note>
  <location>
      <lat>49.4712213</lat>
      <lng>14.0545599</lng>
    </location>
  </callbox>
  <callbox vtaid="382261396">
    <region>Jihoèeskı</region>
    <district>Písek</district>
    <municipality>Raice</municipality>
    <part>Raice</part>
    <note>u obchodu</note>
  <location>
      <lat>49.2408992</lat>
      <lng>14.1017424</lng>
    </location>
  </callbox>
  <callbox vtaid="382581268">
    <region>Jihoèeskı</region>
    <district>Písek</district>
    <municipality>Sepekov</municipality>
    <part>Sepekov</part>
    <note>náves</note>
  <location>
      <lat>49.4286546</lat>
      <lng>14.4181560</lng>
    </location>
  </callbox>
  <callbox vtaid="382251978">
    <region>Jihoèeskı</region>
    <district>Písek</district>
    <municipality>Skály</municipality>
    <part>Skály</part>
    <note>náves</note>
  <location>
      <lat>49.2198606</lat>
      <lng>14.1601762</lng>
    </location>
  </callbox>
  <callbox vtaid="382588830">
    <region>Jihoèeskı</region>
    <district>Písek</district>
    <municipality>Slabèice</municipality>
    <part>Slabèice</part>
    <note>u kulturního domu</note>
  <location>
      <lat>49.3265348</lat>
      <lng>14.3378755</lng>
    </location>
  </callbox>
  <callbox vtaid="382229000">
    <region>Jihoèeskı</region>
    <district>Písek</district>
    <municipality>Smetanova Lhota</municipality>
    <part>Smetanova Lhota</part>
    <note>u obchodu Potraviny</note>
  <location>
      <lat>49.4476081</lat>
      <lng>14.0871663</lng>
    </location>
  </callbox>
  <callbox vtaid="382589145">
    <region>Jihoèeskı</region>
    <district>Písek</district>
    <municipality>Stehlovice</municipality>
    <part>Stehlovice</part>
    <note>levá strana OÚ na návsi</note>
  <location>
      <lat>49.3933982</lat>
      <lng>14.3228862</lng>
    </location>
  </callbox>
  <callbox vtaid="382259131">
    <region>Jihoèeskı</region>
    <district>Písek</district>
    <municipality>Tálín</municipality>
    <part>Tálín</part>
    <note>u obchodu Smíšené zboí náves</note>
  <location>
      <lat>49.2475611</lat>
      <lng>14.2271630</lng>
    </location>
  </callbox>
  <callbox vtaid="382284337">
    <region>Jihoèeskı</region>
    <district>Písek</district>
    <municipality>Temešvár</municipality>
    <part>Temešvár</part>
    <note> náves</note>
  <location>
      <lat>49.3563858</lat>
      <lng>14.2635307</lng>
    </location>
  </callbox>
  <callbox vtaid="382289232">
    <region>Jihoèeskı</region>
    <district>Písek</district>
    <municipality>Varvaov</municipality>
    <part>Varvaov</part>
    <note>náves nahoøe</note>
  <location>
      <lat>49.4389094</lat>
      <lng>14.1425962</lng>
    </location>
  </callbox>
  <callbox vtaid="382589172">
    <region>Jihoèeskı</region>
    <district>Písek</district>
    <municipality>Veselíèko</municipality>
    <part>Veselíèko</part>
    <note>u obecního úøadu  náves</note>
  <location>
      <lat>49.3880051</lat>
      <lng>14.3567696</lng>
    </location>
  </callbox>
  <callbox vtaid="382284339">
    <region>Jihoèeskı</region>
    <district>Písek</district>
    <municipality>Vlastec</municipality>
    <part>Vlastec</part>
    <note>náves  náves</note>
  <location>
      <lat>49.3655715</lat>
      <lng>14.2116965</lng>
    </location>
  </callbox>
  <callbox vtaid="382283197">
    <region>Jihoèeskı</region>
    <district>Písek</district>
    <municipality>Vrá</municipality>
    <part>Stará Vrá</part>
    <note>pøed poštou náves</note>
  <location>
      <lat>49.3830481</lat>
      <lng>14.1278796</lng>
    </location>
  </callbox>
  <callbox vtaid="382284441">
    <region>Jihoèeskı</region>
    <district>Písek</district>
    <municipality>Záhoøí</municipality>
    <part>Horní Záhoøí</part>
    <note>na námìstí pøed školou</note>
  <location>
      <lat>49.3437281</lat>
      <lng>14.2125487</lng>
    </location>
  </callbox>
  <callbox vtaid="382522142">
    <region>Jihoèeskı</region>
    <district>Písek</district>
    <municipality>Zbelítov</municipality>
    <part>Zbelítov</part>
    <note>náves náves</note>
  <location>
      <lat>49.4566348</lat>
      <lng>14.3290730</lng>
    </location>
  </callbox>
  <callbox vtaid="382585158">
    <region>Jihoèeskı</region>
    <district>Písek</district>
    <municipality>Zbìšièky</municipality>
    <part>Zbìšièky</part>
    <note> u obchodu náves</note>
  <location>
      <lat>49.3925046</lat>
      <lng>14.4264737</lng>
    </location>
  </callbox>
  <callbox vtaid="382584567">
    <region>Jihoèeskı</region>
    <district>Písek</district>
    <municipality>Zhoø</municipality>
    <part>Zhoø</part>
    <note> u obchodu náves</note>
  <location>
      <lat>49.5012155</lat>
      <lng>14.3826956</lng>
    </location>
  </callbox>
  <callbox vtaid="382285700">
    <region>Jihoèeskı</region>
    <district>Písek</district>
    <municipality>Zvíkovské Podhradí</municipality>
    <part>Zvíkovské Podhradí</part>
    <note>køiovatka náves 1407967</note>
  <location>
      <lat>49.4265777</lat>
      <lng>14.2005659</lng>
    </location>
  </callbox>
  <callbox vtaid="382259091">
    <region>Jihoèeskı</region>
    <district>Písek</district>
    <municipality>ïár</municipality>
    <part>ïár</part>
    <note>u obchodu</note>
  <location>
      <lat>49.2331216</lat>
      <lng>14.2278283</lng>
    </location>
  </callbox>
  <callbox vtaid="388423402">
    <region>Jihoèeskı</region>
    <district>Prachatice</district>
    <municipality>Bohumilice</municipality>
    <part>Bohumilice</part>
    <note>náves</note>
  <location>
      <lat>49.0960804</lat>
      <lng>13.8163414</lng>
    </location>
  </callbox>
  <callbox vtaid="388434101">
    <region>Jihoèeskı</region>
    <district>Prachatice</district>
    <municipality>Borová Lada</municipality>
    <part>Borová Lada</part>
    <note>náves, u obecního úøadu</note>
  <location>
      <lat>48.9898390</lat>
      <lng>13.6598605</lng>
    </location>
  </callbox>
  <callbox vtaid="388423630">
    <region>Jihoèeskı</region>
    <district>Prachatice</district>
    <municipality>Bošice</municipality>
    <part>Bošice</part>
    <note>náves</note>
  <location>
      <lat>49.0892882</lat>
      <lng>13.8403309</lng>
    </location>
  </callbox>
  <callbox vtaid="388329938">
    <region>Jihoèeskı</region>
    <district>Prachatice</district>
    <municipality>Budkov</municipality>
    <part>Budkov</part>
    <note>náves, u obchodu</note>
  <location>
      <lat>49.0700564</lat>
      <lng>14.0069740</lng>
    </location>
  </callbox>
  <callbox vtaid="388421296">
    <region>Jihoèeskı</region>
    <district>Prachatice</district>
    <municipality>Buk</municipality>
    <part>Buk</part>
    <note>náves</note>
  <location>
      <lat>49.0379114</lat>
      <lng>13.8451470</lng>
    </location>
  </callbox>
  <callbox vtaid="388329790">
    <region>Jihoèeskı</region>
    <district>Prachatice</district>
    <municipality>Bušanovice</municipality>
    <part>Bušanovice</part>
    <note>náves</note>
  <location>
      <lat>49.1154415</lat>
      <lng>13.9346880</lng>
    </location>
  </callbox>
  <callbox vtaid="388423251">
    <region>Jihoèeskı</region>
    <district>Prachatice</district>
    <municipality>Èkynì</municipality>
    <part>Èkynì</part>
    <note>u pošty</note>
  <location>
      <lat>49.1150343</lat>
      <lng>13.8290610</lng>
    </location>
  </callbox>
  <callbox vtaid="388332031">
    <region>Jihoèeskı</region>
    <district>Prachatice</district>
    <municipality>Drslavice</municipality>
    <part>Drslavice</part>
    <note>Objekt Obecního úøadu</note>
  <location>
      <lat>49.0253267</lat>
      <lng>13.9207650</lng>
    </location>
  </callbox>
  <callbox vtaid="388328202">
    <region>Jihoèeskı</region>
    <district>Prachatice</district>
    <municipality>Dub</municipality>
    <part>Dub</part>
    <note>náves</note>
  <location>
      <lat>49.0109100</lat>
      <lng>14.0000005</lng>
    </location>
  </callbox>
  <callbox vtaid="388436191">
    <region>Jihoèeskı</region>
    <district>Prachatice</district>
    <municipality>Horní Vltavice</municipality>
    <part>Horní Vltavice</part>
    <note>náves ID ROP = 344781</note>
  <location>
      <lat>48.9570488</lat>
      <lng>13.7586972</lng>
    </location>
  </callbox>
  <callbox vtaid="388328736">
    <region>Jihoèeskı</region>
    <district>Prachatice</district>
    <municipality>Hracholusky</municipality>
    <part>Hracholusky</part>
    <note>náves, u zastávky ÈSAD</note>
  <location>
      <lat>49.0587999</lat>
      <lng>14.0885369</lng>
    </location>
  </callbox>
  <callbox vtaid="388331115">
    <region>Jihoèeskı</region>
    <district>Prachatice</district>
    <municipality>Husinec</municipality>
    <part>Husinec</part>
    <street>Prokopovo námìstí</street>
    <note>u pošty</note>
  <location>
      <lat>49.0534680</lat>
      <lng>13.9864062</lng>
    </location>
  </callbox>
  <callbox vtaid="388329441">
    <region>Jihoèeskı</region>
    <district>Prachatice</district>
    <municipality>Chlumany</municipality>
    <part>Chlumany</part>
    <note>u obecního úøadu</note>
  <location>
      <lat>49.0665695</lat>
      <lng>13.9653616</lng>
    </location>
  </callbox>
  <callbox vtaid="388323180">
    <region>Jihoèeskı</region>
    <district>Prachatice</district>
    <municipality>Chroboly</municipality>
    <part>Chroboly</part>
    <note> náves</note>
  <location>
      <lat>48.9565325</lat>
      <lng>14.0669782</lng>
    </location>
  </callbox>
  <callbox vtaid="388324943">
    <region>Jihoèeskı</region>
    <district>Prachatice</district>
    <municipality>Chvalovice</municipality>
    <part>Chvalovice</part>
    <note> náves</note>
  <location>
      <lat>49.0103503</lat>
      <lng>14.2317018</lng>
    </location>
  </callbox>
  <callbox vtaid="388337122">
    <region>Jihoèeskı</region>
    <district>Prachatice</district>
    <municipality>Køišanov</municipality>
    <part>Køišanov</part>
    <note>vojenské rekr. Støedisko Køisanov, ROP ID = 3986470</note>
  <location>
      <lat>48.9091394</lat>
      <lng>14.0200307</lng>
    </location>
  </callbox>
  <callbox vtaid="388323531">
    <region>Jihoèeskı</region>
    <district>Prachatice</district>
    <municipality>Ktiš</municipality>
    <part>Ktiš</part>
    <note> náves</note>
  <location>
      <lat>48.9169818</lat>
      <lng>14.1326519</lng>
    </location>
  </callbox>
  <callbox vtaid="388436338">
    <region>Jihoèeskı</region>
    <district>Prachatice</district>
    <municipality>Kubova Hu</municipality>
    <part>Kubova Hu</part>
    <note>u zastávky ÈSAD ROP ID = 344804</note>
  <location>
      <lat>48.9832325</lat>
      <lng>13.7718236</lng>
    </location>
  </callbox>
  <callbox vtaid="388435013">
    <region>Jihoèeskı</region>
    <district>Prachatice</district>
    <municipality>Kvilda</municipality>
    <part>Kvilda</part>
    <note>náves, u hl. silnice</note>
  <location>
      <lat>49.0192576</lat>
      <lng>13.5795796</lng>
    </location>
  </callbox>
  <callbox vtaid="388332293">
    <region>Jihoèeskı</region>
    <district>Prachatice</district>
    <municipality>Laištì</municipality>
    <part>Laištì</part>
    <note> náves</note>
  <location>
      <lat>49.0375599</lat>
      <lng>13.9277101</lng>
    </location>
  </callbox>
  <callbox vtaid="388438698">
    <region>Jihoèeskı</region>
    <district>Prachatice</district>
    <municipality>Lenora</municipality>
    <part>Lenora</part>
    <note>u základní  školy</note>
  <location>
      <lat>48.9223148</lat>
      <lng>13.7932697</lng>
    </location>
  </callbox>
  <callbox vtaid="388321290">
    <region>Jihoèeskı</region>
    <district>Prachatice</district>
    <municipality>Lhenice</municipality>
    <part>Lhenice</part>
    <street>Námìstí</street>
    <note>námìstí, u hotelu   Pod Stráí </note>
  <location>
      <lat>48.9946871</lat>
      <lng>14.1500198</lng>
    </location>
  </callbox>
  <callbox vtaid="388329435">
    <region>Jihoèeskı</region>
    <district>Prachatice</district>
    <municipality>Lipovice</municipality>
    <part>Lipovice</part>
    <note>náves</note>
  <location>
      <lat>49.1005350</lat>
      <lng>13.9938807</lng>
    </location>
  </callbox>
  <callbox vtaid="388324162">
    <region>Jihoèeskı</region>
    <district>Prachatice</district>
    <municipality>Mahouš</municipality>
    <part>Mahouš</part>
    <note>Obecní úøad</note>
  <location>
      <lat>49.0478481</lat>
      <lng>14.2559610</lng>
    </location>
  </callbox>
  <callbox vtaid="388324945">
    <region>Jihoèeskı</region>
    <district>Prachatice</district>
    <municipality>Malovice</municipality>
    <part>Malovice</part>
    <note>náves, u obecního úøadu</note>
  <location>
      <lat>49.0911855</lat>
      <lng>14.2257626</lng>
    </location>
  </callbox>
  <callbox vtaid="388321656">
    <region>Jihoèeskı</region>
    <district>Prachatice</district>
    <municipality>Mièovice</municipality>
    <part>Mièovice</part>
    <note>náves, u obchodu</note>
  <location>
      <lat>48.9835406</lat>
      <lng>14.1250654</lng>
    </location>
  </callbox>
  <callbox vtaid="388314029">
    <region>Jihoèeskı</region>
    <district>Prachatice</district>
    <municipality>Nebahovy</municipality>
    <part>Nebahovy</part>
    <note>náves,u obecního úøadu</note>
  <location>
      <lat>49.0057584</lat>
      <lng>14.0523359</lng>
    </location>
  </callbox>
  <callbox vtaid="388324940">
    <region>Jihoèeskı</region>
    <district>Prachatice</district>
    <municipality>Nìmèice</municipality>
    <part>Nìmèice</part>
    <note>u hlavní silnice, zastávka ÈSAD</note>
  <location>
      <lat>49.0318030</lat>
      <lng>14.2712610</lng>
    </location>
  </callbox>
  <callbox vtaid="388428165">
    <region>Jihoèeskı</region>
    <district>Prachatice</district>
    <municipality>Nicov</municipality>
    <part>Nicov</part>
    <note>náves</note>
  <location>
      <lat>49.1254378</lat>
      <lng>13.6204607</lng>
    </location>
  </callbox>
  <callbox vtaid="388336091">
    <region>Jihoèeskı</region>
    <district>Prachatice</district>
    <municipality>Nová Pec</municipality>
    <part>Nové Chalupy</part>
    <note>u obchodu COOP JEDNOTA</note>
  <location>
      <lat>48.7781626</lat>
      <lng>13.9300242</lng>
    </location>
  </callbox>
  <callbox vtaid="388434185">
    <region>Jihoèeskı</region>
    <district>Prachatice</district>
    <municipality>Nové Hutì</municipality>
    <part>Nové Hutì</part>
    <note> náves u obchodu</note>
  <location>
      <lat>49.0387029</lat>
      <lng>13.6456594</lng>
    </location>
  </callbox>
  <callbox vtaid="388323596">
    <region>Jihoèeskı</region>
    <district>Prachatice</district>
    <municipality>Pìènov</municipality>
    <part>Pìènov</part>
    <note>Obecní úøad</note>
  <location>
      <lat>49.0531074</lat>
      <lng>13.9420312</lng>
    </location>
  </callbox>
  <callbox vtaid="388428148">
    <region>Jihoèeskı</region>
    <district>Prachatice</district>
    <municipality>Stachy</municipality>
    <part>Stachy</part>
    <note>náves, u obecního úøadu</note>
  <location>
      <lat>49.1018004</lat>
      <lng>13.6665875</lng>
    </location>
  </callbox>
  <callbox vtaid="388335191">
    <region>Jihoèeskı</region>
    <district>Prachatice</district>
    <municipality>Stoec</municipality>
    <part>Stoec</part>
    <note>náves u obecního úøadu, u pošty</note>
  <location>
      <lat>48.8593711</lat>
      <lng>13.8214158</lng>
    </location>
  </callbox>
  <callbox vtaid="388437118">
    <region>Jihoèeskı</region>
    <district>Prachatice</district>
    <municipality>Stránı</municipality>
    <part>Stránı</part>
    <note>náves, u obecního úøadu</note>
  <location>
      <lat>48.9083116</lat>
      <lng>13.7203763</lng>
    </location>
  </callbox>
  <callbox vtaid="388327222">
    <region>Jihoèeskı</region>
    <district>Prachatice</district>
    <municipality>Strunkovice nad Blanicí</municipality>
    <part>Strunkovice nad Blanicí</part>
    <street>námìstí Bohumila Havlasy</street>
    <note>námìstí</note>
  <location>
      <lat>49.0844643</lat>
      <lng>14.0549315</lng>
    </location>
  </callbox>
  <callbox vtaid="388411659">
    <region>Jihoèeskı</region>
    <district>Prachatice</district>
    <municipality>Svatá Maøí</municipality>
    <part>Svatá Maøí</part>
    <note>náves, u obchodu</note>
  <location>
      <lat>49.0645311</lat>
      <lng>13.8314305</lng>
    </location>
  </callbox>
  <callbox vtaid="388421294">
    <region>Jihoèeskı</region>
    <district>Prachatice</district>
    <municipality>Šumavské Hoštice</municipality>
    <part>Šumavské Hoštice</part>
    <note>náves, u pošty</note>
  <location>
      <lat>49.0394009</lat>
      <lng>13.8722645</lng>
    </location>
  </callbox>
  <callbox vtaid="388314043">
    <region>Jihoèeskı</region>
    <district>Prachatice</district>
    <municipality>Tìšovice</municipality>
    <part>Bìleè</part>
    <note>náves, u obchodu</note>
  <location>
      <lat>49.0571149</lat>
      <lng>14.0239051</lng>
    </location>
  </callbox>
  <callbox vtaid="388329442">
    <region>Jihoèeskı</region>
    <district>Prachatice</district>
    <municipality>Tvrzice</municipality>
    <part>Tvrzice</part>
    <note>náves</note>
  <location>
      <lat>49.1217414</lat>
      <lng>13.9671315</lng>
    </location>
  </callbox>
  <callbox vtaid="388431197">
    <region>Jihoèeskı</region>
    <district>Prachatice</district>
    <municipality>Vacov</municipality>
    <part>Vacov</part>
    <note>námìstí</note>
  <location>
      <lat>49.1368702</lat>
      <lng>13.7291087</lng>
    </location>
  </callbox>
  <callbox vtaid="388328716">
    <region>Jihoèeskı</region>
    <district>Prachatice</district>
    <municipality>Vitìjovice</municipality>
    <part>Vitìjovice</part>
    <note> náves</note>
  <location>
      <lat>49.0463927</lat>
      <lng>14.0733677</lng>
    </location>
  </callbox>
  <callbox vtaid="388329300">
    <region>Jihoèeskı</region>
    <district>Prachatice</district>
    <municipality>Vlachovo Bøezí</municipality>
    <part>Vlachovo Bøezí</part>
    <street>námìstí Svobody</street>
    <note>VTA - aut.zastávka</note>
  <location>
      <lat>49.0816202</lat>
      <lng>13.9591640</lng>
    </location>
  </callbox>
  <callbox vtaid="388431124">
    <region>Jihoèeskı</region>
    <district>Prachatice</district>
    <municipality>Vrbice</municipality>
    <part>Vrbice</part>
    <note>náves</note>
  <location>
      <lat>49.1412835</lat>
      <lng>13.7157914</lng>
    </location>
  </callbox>
  <callbox vtaid="388332410">
    <region>Jihoèeskı</region>
    <district>Prachatice</district>
    <municipality>Záblatí</municipality>
    <part>Záblatí</part>
    <note>náves</note>
  <location>
      <lat>49.0109100</lat>
      <lng>14.0000005</lng>
    </location>
  </callbox>
  <callbox vtaid="388423520">
    <region>Jihoèeskı</region>
    <district>Prachatice</district>
    <municipality>Zálezly</municipality>
    <part>Zálezly</part>
    <note>u obecního úøadu, náves</note>
  <location>
      <lat>49.1074501</lat>
      <lng>13.8945835</lng>
    </location>
  </callbox>
  <callbox vtaid="388337210">
    <region>Jihoèeskı</region>
    <district>Prachatice</district>
    <municipality>Zbytiny</municipality>
    <part>Blaejovice</part>
    <note>náves</note>
  <location>
      <lat>48.9426273</lat>
      <lng>13.9780527</lng>
    </location>
  </callbox>
  <callbox vtaid="388426948">
    <region>Jihoèeskı</region>
    <district>Prachatice</district>
    <municipality>Zdíkov</municipality>
    <part>Zdíkov</part>
    <note>u hotelu Šumava, parkovištì</note>
  <location>
      <lat>49.0845717</lat>
      <lng>13.6973788</lng>
    </location>
  </callbox>
  <callbox vtaid="388421295">
    <region>Jihoèeskı</region>
    <district>Prachatice</district>
    <municipality>árovná</municipality>
    <part>árovná</part>
    <note>u obecního úøadu - náves</note>
  <location>
      <lat>49.0462017</lat>
      <lng>13.8993192</lng>
    </location>
  </callbox>
  <callbox vtaid="388336192">
    <region>Jihoèeskı</region>
    <district>Prachatice</district>
    <municipality>elnava</municipality>
    <part>elnava</part>
    <note>náves, u hlavní silnice</note>
  <location>
      <lat>48.8120466</lat>
      <lng>13.9650234</lng>
    </location>
  </callbox>
  <callbox vtaid="388314119">
    <region>Jihoèeskı</region>
    <district>Prachatice</district>
    <municipality>ernovice</municipality>
    <part>ernovice</part>
    <note>u obecního úøadu</note>
  <location>
      <lat>49.0285553</lat>
      <lng>14.0395479</lng>
    </location>
  </callbox>
  <callbox vtaid="383390420">
    <region>Jihoèeskı</region>
    <district>Strakonice</district>
    <municipality>Bavorov</municipality>
    <part>Bavorov</part>
    <street>Námìstí Míru</street>
    <note>námìstí</note>
  <location>
      <lat>49.1216457</lat>
      <lng>14.0785831</lng>
    </location>
  </callbox>
  <callbox vtaid="383492490">
    <region>Jihoèeskı</region>
    <district>Strakonice</district>
    <municipality>Bìlèice</municipality>
    <part>Bìlèice</part>
    <street>nám. J. Kuèery</street>
    <note>náves</note>
  <location>
      <lat>49.5030737</lat>
      <lng>13.8751672</lng>
    </location>
  </callbox>
  <callbox vtaid="383421840">
    <region>Jihoèeskı</region>
    <district>Strakonice</district>
    <municipality>Bezdìdovice</municipality>
    <part>Bezdìdovice</part>
    <note>u obecního úøadu náves</note>
  <location>
      <lat>49.4441938</lat>
      <lng>13.8799684</lng>
    </location>
  </callbox>
  <callbox vtaid="383391822">
    <region>Jihoèeskı</region>
    <district>Strakonice</district>
    <municipality>Bílsko</municipality>
    <part>Bílsko</part>
    <note>u obecního úøadu náves</note>
  <location>
      <lat>49.1590449</lat>
      <lng>14.0590080</lng>
    </location>
  </callbox>
  <callbox vtaid="383495398">
    <region>Jihoèeskı</region>
    <district>Strakonice</district>
    <municipality>Bøezí</municipality>
    <part>Bøezí</part>
    <note>náves</note>
  <location>
      <lat>49.5077731</lat>
      <lng>13.7974832</lng>
    </location>
  </callbox>
  <callbox vtaid="383423096">
    <region>Jihoèeskı</region>
    <district>Strakonice</district>
    <municipality>Buzice</municipality>
    <part>Buzice</part>
    <note>náves</note>
  <location>
      <lat>49.4226298</lat>
      <lng>13.9326147</lng>
    </location>
  </callbox>
  <callbox vtaid="383389098">
    <region>Jihoèeskı</region>
    <district>Strakonice</district>
    <municipality>Cehnice</municipality>
    <part>Cehnice</part>
    <note>u obchodu</note>
  <location>
      <lat>49.2150686</lat>
      <lng>14.0293932</lng>
    </location>
  </callbox>
  <callbox vtaid="383389085">
    <region>Jihoèeskı</region>
    <district>Strakonice</district>
    <municipality>Èejetice</municipality>
    <part>Mladìjovice</part>
    <note>u obchodu</note>
  <location>
      <lat>49.2528203</lat>
      <lng>14.0203883</lng>
    </location>
  </callbox>
  <callbox vtaid="383388021">
    <region>Jihoèeskı</region>
    <district>Strakonice</district>
    <municipality>Èepøovice</municipality>
    <part>Èepøovice</part>
    <note>u vchodu do OÚ</note>
  <location>
      <lat>49.1552391</lat>
      <lng>13.9750807</lng>
    </location>
  </callbox>
  <callbox vtaid="383396300">
    <region>Jihoèeskı</region>
    <district>Strakonice</district>
    <municipality>Èestice</municipality>
    <part>Èestice</part>
    <note>u obchodu</note>
  <location>
      <lat>49.1678285</lat>
      <lng>13.8037005</lng>
    </location>
  </callbox>
  <callbox vtaid="383381109">
    <region>Jihoèeskı</region>
    <district>Strakonice</district>
    <municipality>Èíèenice</municipality>
    <part>Èíèenice</part>
    <note>u OÚ</note>
  <location>
      <lat>49.1530517</lat>
      <lng>14.2308510</lng>
    </location>
  </callbox>
  <callbox vtaid="383376116">
    <region>Jihoèeskı</region>
    <district>Strakonice</district>
    <municipality>Doubravice</municipality>
    <part>Doubravice</part>
    <note>náves</note>
  <location>
      <lat>49.3520172</lat>
      <lng>13.8619243</lng>
    </location>
  </callbox>
  <callbox vtaid="383380151">
    <region>Jihoèeskı</region>
    <district>Strakonice</district>
    <municipality>Drahonice</municipality>
    <part>Drahonice</part>
    <note>u obchodu</note>
  <location>
      <lat>49.2007526</lat>
      <lng>14.0745822</lng>
    </location>
  </callbox>
  <callbox vtaid="383323688">
    <region>Jihoèeskı</region>
    <district>Strakonice</district>
    <municipality>Drachkov</municipality>
    <part>Drachkov</part>
  <location>
      <lat>49.2428238</lat>
      <lng>13.8414703</lng>
    </location>
  </callbox>
  <callbox vtaid="383395080">
    <region>Jihoèeskı</region>
    <district>Strakonice</district>
